var dp = [{"business_id":9068563,"lat":40.02979,"lng":116.27753,"avg_rating":3.0,"count":20,"Stars":{"All":20,"5s":2,"4s":10,"3s":7,"2s":1,"1s":0},"Region":"海淀区","BusinessName":"汉丽轩烤肉超市(百旺商城店)","Address":"圆明园西路百旺商城(近农业大学)","tel":"010-62813622","BusinessType":"北京餐厅","Region2":"海淀区","SubRegion":"上地","SalesType":"自助餐", "comments":{"comments_count":36, "items":["团购的很便宜不到40元。近期去过2次，都是一个人。纸上烤肉没那么多焦糊的可能，吃起来营养些，卫生些。五花肉和大虾，再来些香菇，韭菜，金针菇，茄子什么的蔬菜。五花肉用生菜卷着蘸黄酱吃很香，又不上火，光五花肉我就能吃6-8盘子，每盘5片。和别的汉丽轩毕竟，大虾的个头虽然小点，但是不限量供应，每次吃个20只左右能。"]}},
{"business_id":4290577,"lat":40.03792,"lng":116.31417,"avg_rating":2.0,"count":204,"Stars":{"All":204,"5s":21,"4s":66,"3s":78,"2s":27,"1s":12},"Region":"海淀区","BusinessName":"汉丽轩烤肉超市(上地店)","Address":"上地三街1号中黎科技园1楼(上地东路口西北侧)","tel":"010-62970806","BusinessType":"北京餐厅","Region2":"海淀区","SubRegion":"上地","SalesType":"自助餐", "comments":{"comments_count":333, "items":["CA O，真他奶的难吃，肉没肉味，菜品不齐，没有金针菇，跟服务员要菜，磨磨唧唧就是不给，啥好玩意都藏起来。剩在外面的就是烂的"]}},
{"business_id":2103445,"lat":40.03491,"lng":116.31187,"avg_rating":2.0,"count":148,"Stars":{"All":148,"5s":10,"4s":61,"3s":50,"2s":15,"1s":12},"Region":"海淀区","BusinessName":"比格比萨(上地店)","Address":"上地信息产业基地科实大厦底商","tel":"010-62967237","BusinessType":"北京餐厅","Region2":"海淀区","SubRegion":"上地","SalesType":"比萨", "comments":{"comments_count":304, "items":["秘制鸡肉比较喜欢，香香嫩嫩，口感很好。芙蓉鲜蔬汤滑滑的也很好喝。披萨味道好，芝士够多，虽然不能和必胜客相比，价格还是实惠的。"]}},
{"business_id":2214151,"lat":40.03525,"lng":116.31138,"avg_rating":2.0,"count":234,"Stars":{"All":234,"5s":18,"4s":85,"3s":114,"2s":11,"1s":6},"Region":"海淀区","BusinessName":"海丽轩烤肉店(科实店)","Address":"信息路甲28号科实大厦2楼(上地环岛东南角)","tel":"010-82781161","BusinessType":"北京餐厅","Region2":"海淀区","SubRegion":"上地","SalesType":"自助餐", "comments":{"comments_count":714, "items":["这几自助烤肉店环境很干净，里面品种多样，每次去都会吃培根，烤五花肉，最爱，水果也很多，特别好吃，价位还可以，人很多"]}},
{"business_id":561587,"lat":40.113384,"lng":116.20853,"avg_rating":0.0,"count":1,"Stars":{"All":1,"5s":0,"4s":1,"3s":0,"2s":0,"1s":0},"Region":"海淀区","BusinessName":"翠湖新景渔村","Address":"上庄水库北岸","tel":"010-82473266","BusinessType":"北京餐厅","Region2":"海淀区","SubRegion":"上地","SalesType":"农家菜", "comments":{"comments_count":15, "items":["其实就是个野外烧烤，当时打到的鱼当时就直接做来吃了，价格的话一般吧，环境就是大自然的环境，消费的性价比感觉略高，适合跟朋友们一起来，不适合带女朋友来甜蜜~"]}},
{"business_id":4194581,"lat":40.03248,"lng":116.274956,"avg_rating":0.0,"count":1,"Stars":{"All":1,"5s":0,"4s":1,"3s":0,"2s":0,"1s":0},"Region":"海淀区","BusinessName":"香水湾","Address":"上地环岛马连洼北路8号","tel":"无添加","BusinessType":"北京餐厅","Region2":"海淀区","SubRegion":"上地","SalesType":"自助餐", "comments":{"comments_count":4, "items":["是我去过最贵的上地洗浴中心，服务一般，自助餐种类很少，螃蟹只能吃两只，不是很喜欢"]}},
{"business_id":6802163,"lat":40.03785,"lng":116.32709,"avg_rating":0.0,"count":5,"Stars":{"All":5,"5s":0,"4s":1,"3s":3,"2s":0,"1s":1},"Region":"海淀区","BusinessName":"金莱客自助火锅","Address":"上地桥西南路(近地铁站)","tel":"010-52864898","BusinessType":"北京餐厅","Region2":"海淀区","SubRegion":"上地","SalesType":"自助餐", "comments":{"comments_count":5, "items":["已经倒闭啦，还提醒我来写？味道差，地段比较不上不下，吃完一致表示没有下一次，结果他自己就没给我们机会"]}},
{"business_id":3525766,"lat":40.028545,"lng":116.31174,"avg_rating":0.0,"count":1,"Stars":{"All":1,"5s":0,"4s":1,"3s":0,"2s":0,"1s":0},"Region":"海淀区","BusinessName":"BHG Kitchen(上地店)","Address":"农大南路1号院1号楼华联商厦内(近上地南口)","tel":"010-68223521","BusinessType":"北京餐厅","Region2":"海淀区","SubRegion":"上地","SalesType":"自助餐", "comments":{"comments_count":5, "items":["一到中午就能看到很多在附近上班或者住的人来买东西，很多种类都是现场制作看得见也比较放心，有段时间有意大利面味道不错，可惜现在没得卖了。"]}},
{"business_id":5458975,"lat":41.10288,"lng":123.048096,"avg_rating":0.0,"count":0,"Stars":{"All":0,"5s":0,"4s":0,"3s":0,"2s":0,"1s":0},"Region":"海淀区","BusinessName":"甲骨文大厦员工餐厅","Address":"软件园24号楼1楼","tel":"无添加","BusinessType":"北京餐厅","Region2":"海淀区","SubRegion":"上地","SalesType":"自助餐","comments":{"comments_count":0, "items":[]}},
{"business_id":6133878,"lat":40.03451,"lng":116.2929,"avg_rating":3.5,"count":50,"Stars":{"All":50,"5s":9,"4s":26,"3s":10,"2s":5,"1s":0},"Region":"海淀区","BusinessName":"AK47碳烤羊腿音乐串吧","Address":"马连洼北路(近香水湾)","tel":"18311482347","BusinessType":"北京餐厅","Region2":"海淀区","SubRegion":"上地","SalesType":"烧烤", "comments":{"comments_count":62, "items":["垃圾餐厅，在拉手预订的团购，买之前咨询周五晚上是否可用，回答可以，等我买了之后使用的时候告诉我周五周六不能用，态度极差。还非说页面上有写周五周六不能用，其实根本就没有。差评，今生今世不会去这个垃圾地方"]}},
{"business_id":2338303,"lat":40.03733,"lng":116.314125,"avg_rating":4.0,"count":159,"Stars":{"All":159,"5s":21,"4s":64,"3s":63,"2s":5,"1s":6},"Region":"海淀区","BusinessName":"宏状元粥店(上地店)","Address":"上地三街1号楼1楼(上地信息环岛东北)","tel":"010-82790336","BusinessType":"北京餐厅","Region2":"海淀区","SubRegion":"上地","SalesType":"粥店", "comments":{"comments_count":314, "items":["五蔬粥超爱喝的，经常不管外带还是在店里喝都会选择它，菜跟其他主食做的也不错哦。晚上下夜班经常回去他们家坐坐喝粥吃饭。"]}},
{"business_id":2517391,"lat":40.03491,"lng":116.31187,"avg_rating":4.0,"count":100,"Stars":{"All":100,"5s":15,"4s":41,"3s":37,"2s":1,"1s":6},"Region":"海淀区","BusinessName":"田老师红烧肉(科实大厦店)","Address":"信息路甲28号科实大厦1楼(上地环岛东南角)","tel":"010-62981736","BusinessType":"北京餐厅","Region2":"海淀区","SubRegion":"上地","SalesType":"快餐/简餐", "comments":{"comments_count":185, "items":["我只能说很差！早餐的馄饨说是现煮的，等了有五六分钟，最后汤是温的，馄饨是硬邦邦结成块的～包子也是凉的！枉费我们公司同事那么推崇！白瞎了！"]}},
{"business_id":6116424,"lat":40.034298,"lng":116.28643,"avg_rating":4.0,"count":4,"Stars":{"All":4,"5s":2,"4s":1,"3s":1,"2s":0,"1s":0},"Region":"海淀区","BusinessName":"龙娃碳烤羊腿(马连洼店)","Address":"马连洼北路107号","tel":"010-52400467","BusinessType":"北京餐厅","Region2":"海淀区","SubRegion":"上地","SalesType":"烧烤", "comments":{"comments_count":8, "items":["晚上和几个同事喝酒。反正已是秋天，膘不膘的该贴就贴吧。羊腿一只，烤串若干，小菜六碟。吃的不亦乐乎。羊腿还可以，提前喂好的。咸淡适宜。小菜嘛倒也中规中矩。环境一般的ok。自带两瓶白酒入肚，免费扎啤一个（真是挺大的一扎）。"]}},
{"business_id":5859892,"lat":40.03392,"lng":116.31838,"avg_rating":4.0,"count":4,"Stars":{"All":4,"5s":4,"4s":0,"3s":0,"2s":0,"1s":0},"Region":"海淀区","BusinessName":"老滋味排骨米饭","Address":"地铁13号线上地站(麦当劳对面)","tel":"无添加","BusinessType":"北京餐厅","Region2":"海淀区","SubRegion":"上地","SalesType":"快餐/简餐", "comments":{"comments_count":16, "items":["我是點外送的排骨米飯+驢雜湯非常&quot;誠實&quot;商家排骨米飯就是三塊排骨+白飯，沒任何其他配菜。相比之下，驢雜湯除了少的可憐的驢雜還有清湯之外，還送了很多&quot;油&quot;，讓人喝不下去...送個外送連筷子湯勺紙都沒有~唉"]}},
{"business_id":2683315,"lat":40.026352,"lng":116.31406,"avg_rating":4.0,"count":23,"Stars":{"All":23,"5s":4,"4s":13,"3s":5,"2s":0,"1s":1},"Region":"海淀区","BusinessName":"李先生加州牛肉面(上地店)","Address":"上地信息路38号上地数码大厦B座108-3号(近硅谷亮城)","tel":"010-62984897","BusinessType":"北京餐厅","Region2":"海淀区","SubRegion":"中关村","SalesType":"粉面馆", "comments":{"comments_count":30, "items":["有点小贵，味道还可以，环境真的棒，最好错开午休的时间，人少时去补交好。"]}},
{"business_id":6236757,"lat":40.05315,"lng":116.31556,"avg_rating":4.0,"count":13,"Stars":{"All":13,"5s":3,"4s":6,"3s":3,"2s":0,"1s":1},"Region":"海淀区","BusinessName":"稻香村(西二旗店)","Address":"西二旗大街领秀新硅谷D区底商(近克丽缇娜)","tel":"无添加","BusinessType":"北京餐厅","Region2":"海淀区","SubRegion":"上地","SalesType":"老北京小吃", "comments":{"comments_count":14, "items":["挺好的，很干净，周围来买的人多，买盒装的爱装贵的，下次自己选择。它家熟食看起来不错，有机会来买"]}},
{"business_id":5362845,"lat":40.05213,"lng":116.31267,"avg_rating":4.0,"count":4,"Stars":{"All":4,"5s":1,"4s":1,"3s":1,"2s":1,"1s":0},"Region":"海淀区","BusinessName":"益民市场小吃店","Address":"西二旗大街益民市场内(超市发对面)","tel":"无添加","BusinessType":"北京餐厅","Region2":"海淀区","SubRegion":"上地","SalesType":"其他小吃", "comments":{"comments_count":4, "items":["一对老夫妻经验的煎饼铺。我最爱他们的杂粮大煎饼！只是装修后涨价了！"]}},
{"business_id":5697580,"lat":40.033,"lng":116.31922,"avg_rating":4.0,"count":12,"Stars":{"All":12,"5s":4,"4s":4,"3s":4,"2s":0,"1s":0},"Region":"海淀区","BusinessName":"一手店(上地店)","Address":"上地佳园38号南侧底商","tel":"010-62986990","BusinessType":"北京餐厅","Region2":"海淀区","SubRegion":"上地","SalesType":"熟食", "comments":{"comments_count":12, "items":["一手店猪手，猪头肉，笋尖，豆干，香菇肉卷，超级推荐！还有团购，美团！"]}},
{"business_id":5866504,"lat":40.03754,"lng":116.31613,"avg_rating":3.0,"count":53,"Stars":{"All":53,"5s":6,"4s":13,"3s":26,"2s":1,"1s":7},"Region":"海淀区","BusinessName":"大清花(上地店)","Address":"上地东路(上地环岛东侧)","tel":"010-62977950","BusinessType":"北京餐厅","Region2":"海淀区","SubRegion":"上地","SalesType":"东北菜", "comments":{"comments_count":64, "items":["今天中午去吃的，饺子味道还可以，推荐#饺子# 猪肉酸菜还可以，#五彩大拉皮# ，就是实惠。。。。"]}},
{"business_id":8967713,"lat":40.03693,"lng":116.3092,"avg_rating":3.5,"count":17,"Stars":{"All":17,"5s":4,"4s":6,"3s":6,"2s":0,"1s":1},"Region":"海淀区","BusinessName":"皇家鸡排(上地店)","Address":"上地三街9号嘉华大厦C座1楼","tel":"13381444989","BusinessType":"北京餐厅","Region2":"海淀区","SubRegion":"上地","SalesType":"其他小吃", "comments":{"comments_count":23, "items":["盐酥鸡味道不错，比台湾的差不多就是欠一点点花椒叶的味道，总体来说已经不错了，关键是还能外卖"]}},
{"business_id":5291389,"lat":40.052742,"lng":116.300606,"avg_rating":3.0,"count":28,"Stars":{"All":28,"5s":3,"4s":8,"3s":13,"2s":2,"1s":2},"Region":"海淀区","BusinessName":"食分钟","Address":"上地十街1号辉煌国际6号楼107号(百度大厦对面)","tel":"010-52459725","BusinessType":"北京餐厅","Region2":"海淀区","SubRegion":"上地","SalesType":"快餐/简餐", "comments":{"comments_count":37, "items":["就是个食堂,味道还可以,量稍微少点,如果价格能够再便宜些,就会更加吸引人!"]}},
{"business_id":2981200,"lat":40.02818,"lng":116.31167,"avg_rating":3.5,"count":36,"Stars":{"All":36,"5s":5,"4s":21,"3s":7,"2s":3,"1s":0},"Region":"海淀区","BusinessName":"老车记铁板烧(上地华联店)","Address":"农大南路1号院1号楼华联商厦4楼F4-11号(近上地南口)","tel":"010-62668448","BusinessType":"北京餐厅","Region2":"海淀区","SubRegion":"上地","SalesType":"快餐/简餐", "comments":{"comments_count":56, "items":["和同事来吃铁板，还不错，我以为是3个不同的店，其实是一家，就是经验三种口味。铁板还不错，很适合同事聚餐。"]}},
{"business_id":2745730,"lat":40.033768,"lng":116.28617,"avg_rating":3.5,"count":37,"Stars":{"All":37,"5s":6,"4s":17,"3s":12,"2s":0,"1s":2},"Region":"海淀区","BusinessName":"百万顺发炭火烤羊腿(马连洼店)","Address":"马连洼北路菊园对面","tel":"010-82709495","BusinessType":"北京餐厅","Region2":"海淀区","SubRegion":"上地","SalesType":"烧烤", "comments":{"comments_count":55, "items":["感觉吃烧烤热闹过来过生日。羊腿58一斤。三斤半的。好膻啊。。真的是腌制过的么。一条羊腿基本上就是烤着玩儿了。心管很硬。板筋不错。说实话感觉没有什么亮点。就是个热闹。服务员很好。最近几天有活动。满二百送一斤烤羊腿的代金券。"]}},
{"business_id":3456367,"lat":40.041546,"lng":116.297386,"avg_rating":3.5,"count":19,"Stars":{"All":19,"5s":4,"4s":7,"3s":7,"2s":0,"1s":1},"Region":"海淀区","BusinessName":"东池便当(上地店)","Address":"东北旺南路28号院(上地办公中心对面)","tel":"010-82709832","BusinessType":"北京餐厅","Region2":"海淀区","SubRegion":"上地","SalesType":"快餐/简餐", "comments":{"comments_count":25, "items":["原来在上地那边上班，中午最喜欢叫这家的了。老板是台湾人，打电话的时候听着他的台湾腔很有意思。焢肉饭和鸡腿饭量足又好吃还便宜，有一阵子天天吃，导致减肥根本无法成行……有一阵子可能是老板想多开点，托付了别人，结果饭和菜的质量直线下降，鸡腿越来越小，肉越来越少越来越难吃，服务水准也一跌千丈。后来大概是老板又回来管了吧，水准一下子就回归了。成了上班时候经常吃的午饭。现在离开了，还是很想念这家的快餐。餐盒不是塑料的，是三合板的，很有特色。不知道现在怎么样了，看点评这是开了门店啊，有机会回去吃吃。要是能保证水准的情况下多开些分店就好了，吃完这家的快餐导致我对太多的快餐盒饭都失去了兴趣……"]}},
{"business_id":2202187,"lat":40.04317,"lng":116.25578,"avg_rating":3.5,"count":10,"Stars":{"All":10,"5s":3,"4s":5,"3s":2,"2s":0,"1s":0},"Region":"海淀区","BusinessName":"春和饺子馆","Address":"西北旺路口西(近西北旺大桥)","tel":"010-62812815","BusinessType":"北京餐厅","Region2":"海淀区","SubRegion":"上地","SalesType":"饺子", "comments":{"comments_count":22, "items":["味道不错，饺子是手工现饱的，起码看起来比较干净，而且价格也不算贵"]}},
{"business_id":3577702,"lat":40.03435,"lng":116.28866,"avg_rating":3.0,"count":44,"Stars":{"All":44,"5s":7,"4s":20,"3s":13,"2s":2,"1s":2},"Region":"海淀区","BusinessName":"于记羊汤","Address":"马连洼北路路北(菊园小区对面)","tel":"无添加","BusinessType":"北京餐厅","Region2":"海淀区","SubRegion":"上地","SalesType":"其他小吃", "comments":{"comments_count":54, "items":["人气还行，环境一般，苍蝇屋内乱飞，鲜羊肉串串好！其它的就一般了，羊汤没喝，总体价格合理！"]}},
{"business_id":3257407,"lat":40.03465,"lng":116.2905,"avg_rating":3.0,"count":17,"Stars":{"All":17,"5s":2,"4s":6,"3s":9,"2s":0,"1s":0},"Region":"海淀区","BusinessName":"烤羊腿烤海鲜","Address":"马连洼北路菊园小区对面(菊园小区对面)","tel":"010-62988913","BusinessType":"北京餐厅","Region2":"海淀区","SubRegion":"上地","SalesType":"烧烤", "comments":{"comments_count":26, "items":["经常来这里吃，记不清多少次了，味道一直没变，新菜也增加了不少，还有三文鱼片，很新鲜，28元实惠实惠！赞！"]}},
{"business_id":2675407,"lat":40.03491,"lng":116.31187,"avg_rating":3.0,"count":67,"Stars":{"All":67,"5s":5,"4s":34,"3s":26,"2s":1,"1s":1},"Region":"海淀区","BusinessName":"滇池一家(上地店)","Address":"信息路甲28号科实大厦1楼(上地环岛东南角)","tel":"无添加","BusinessType":"北京餐厅","Region2":"海淀区","SubRegion":"上地","SalesType":"粉面馆", "comments":{"comments_count":113, "items":["在他家团购的烤鱼，还是很划算，好像有效期到明年呢，就是选的菜量有点少，有两碗米饭，和两杯饮料"]}},
{"business_id":4526299,"lat":40.054413,"lng":116.30203,"avg_rating":3.0,"count":23,"Stars":{"All":23,"5s":2,"4s":10,"3s":9,"2s":1,"1s":1},"Region":"海淀区","BusinessName":"古镇花溪(上地东路店)","Address":"上地东路1号盈创动力大厦E座(近上地十街)","tel":"无添加","BusinessType":"北京餐厅","Region2":"海淀区","SubRegion":"上地","SalesType":"炸酱面", "comments":{"comments_count":29, "items":["一般吧，就是不断的涨价。我就经历了4次涨价，每次也不多，也就涨两块钱。能你还能接受。。。但是已经没有太大的性价比了。工资要是能跟上这个涨速也行啊。"]}},
{"business_id":5858018,"lat":40.053158,"lng":116.30258,"avg_rating":3.5,"count":35,"Stars":{"All":35,"5s":8,"4s":12,"3s":11,"2s":3,"1s":1},"Region":"海淀区","BusinessName":"麦当劳(上地十街店)","Address":"上地十街1号院6号楼1楼(近上地东路)","tel":"010-62669510","BusinessType":"北京餐厅","Region2":"海淀区","SubRegion":"上地","SalesType":"快餐/简餐", "comments":{"comments_count":40, "items":["地方有点小,味道反正都是一样的,就是环境能再改善一下就更好了!适合快餐一族!"]}},
{"business_id":2091112,"lat":40.05349,"lng":116.29419,"avg_rating":3.0,"count":14,"Stars":{"All":14,"5s":1,"4s":3,"3s":5,"2s":2,"1s":3},"Region":"海淀区","BusinessName":"兰州老马富贵拉面(旺北站店)","Address":"982东北旺北站(近后厂村路)","tel":"无添加","BusinessType":"北京餐厅","Region2":"海淀区","SubRegion":"上地","SalesType":"粉面馆", "comments":{"comments_count":23, "items":["昨天中午刚吃过，也经常吃，地方就跟大排档似的，别的都一般，就是奔羊肉串去的，因为觉得他家的羊肉是真羊肉"]}},
{"business_id":2866453,"lat":40.045536,"lng":116.3084,"avg_rating":3.5,"count":10,"Stars":{"All":10,"5s":2,"4s":5,"3s":3,"2s":0,"1s":0},"Region":"海淀区","BusinessName":"营养小厨外卖(上地店)","Address":"上地七街数字传媒得实大厦附近","tel":"010-51295388","BusinessType":"北京餐厅","Region2":"海淀区","SubRegion":"上地","SalesType":"快餐/简餐", "comments":{"comments_count":14, "items":["感觉网店还是挺正规的，但是味道就很一般了，不过呢，价格也很实惠 要是早点点餐的话 可以定到特价菜还是很超值的。要是十点半过了再定很多菜就没有了，不知道是不是他们做的分量太少，还是点餐的人太多。"]}},
{"business_id":4691387,"lat":40.053097,"lng":116.30255,"avg_rating":3.0,"count":39,"Stars":{"All":39,"5s":7,"4s":8,"3s":11,"2s":7,"1s":6},"Region":"海淀区","BusinessName":"TATA米线","Address":"上地十街1号辉煌国际广场1楼153号(近百度大厦)","tel":"010-82176601","BusinessType":"北京餐厅","Region2":"海淀区","SubRegion":"上地","SalesType":"粉面馆", "comments":{"comments_count":62, "items":["单位附近 价格小贵 米线20元起 可免费续一份米线，也有盖浇饭，鸡蛋碰石头蛮特别的，但就是量小。"]}},
{"business_id":5245209,"lat":40.028545,"lng":116.31174,"avg_rating":3.5,"count":27,"Stars":{"All":27,"5s":3,"4s":10,"3s":12,"2s":2,"1s":0},"Region":"海淀区","BusinessName":"过桥缘(上地店)","Address":"农大南路1号院1号楼华联商厦B1楼(近北京体育大学)","tel":"010-82349361","BusinessType":"北京餐厅","Region2":"海淀区","SubRegion":"上地","SalesType":"粉面馆", "comments":{"comments_count":46, "items":["味道一般，米线可以再加一碗，米线煮的偏硬，饭点人多，服务不到位超慢的。"]}},
{"business_id":6069429,"lat":40.04231,"lng":116.31605,"avg_rating":3.0,"count":4,"Stars":{"All":4,"5s":0,"4s":0,"3s":4,"2s":0,"1s":0},"Region":"海淀区","BusinessName":"百粥乡(iMOMA店)","Address":"安宁庄西二条iMOMA B1楼(近金泰富地大厦)","tel":"010-61190995","BusinessType":"北京餐厅","Region2":"海淀区","SubRegion":"上地","SalesType":"粥店", "comments":{"comments_count":9, "items":["距离公司不是特别远但是这家的位置还是蛮隐蔽的imoma这边貌似只有一家吃快餐的地方在地下一层，装修一般但是还算干净看看菜单，发现店家的东西可说不是很便宜杂粮粥，包括什么紫米粥，菠菜粥的都要8米甜粥，什么八宝粥等，需要10米其他的炒菜倒是不少，热菜都在15米以上，地三鲜要18块倒是有一些广式点心看着不错，不过也不便宜哈且不说价格如何，服务和上菜速度都一般哈隔壁的菜我喝完粥了还没上，都等着急了，炒菜估计会特别慢中午过来的，人不多，上座率一半吧要了八宝粥，本来是甜粥吧，但是吃起来没啥味道哈，量还可以，满稠的看着貌似有套餐，13米的，15米的，还可以试试这家有wifi比较难得"]}},
{"business_id":6311681,"lat":40.02725,"lng":116.23311,"avg_rating":3.5,"count":10,"Stars":{"All":10,"5s":4,"4s":3,"3s":2,"2s":0,"1s":1},"Region":"海淀区","BusinessName":"百度煲仔饭","Address":"软件园南路28号(上地办公中心对面)","tel":"13911840163","BusinessType":"北京餐厅","Region2":"海淀区","SubRegion":"上地","SalesType":"快餐/简餐", "comments":{"comments_count":13, "items":["辣子鸡丁超好吃&nbsp;在附近上班 辣子鸡丁吃了十多次了 还是很好吃 老板很细心 服务超好"]}},
{"business_id":2262760,"lat":40.03423,"lng":116.31189,"avg_rating":3.0,"count":17,"Stars":{"All":17,"5s":4,"4s":2,"3s":6,"2s":2,"1s":3},"Region":"海淀区","BusinessName":"聚瑞祥美国加州牛肉面大王(上地店)","Address":"上地信息路科实大厦C座1楼","tel":"010-82772810","BusinessType":"北京餐厅","Region2":"海淀区","SubRegion":"上地","SalesType":"粉面馆", "comments":{"comments_count":42, "items":["真的不怎么样，简直是胡弄人，再不去了，服务差，味道差，上当上当"]}},
{"business_id":5352610,"lat":40.02922,"lng":116.31154,"avg_rating":3.0,"count":24,"Stars":{"All":24,"5s":4,"4s":12,"3s":8,"2s":0,"1s":0},"Region":"海淀区","BusinessName":"上地华联美食广场","Address":"农大南路1号院1号楼上地华联商厦B1层(华联超市)","tel":"无添加","BusinessType":"北京餐厅","Region2":"海淀区","SubRegion":"上地","SalesType":"快餐/简餐", "comments":{"comments_count":32, "items":["华联地下一层，各种家常主食和小吃，比较喜欢吃的有手抓饼，羊汤，过桥米线，鸭血粉丝。吃饭的人比较多，没有空调，经常热烘烘的～28号充值满100送20哦～"]}},
{"business_id":2429938,"lat":40.024784,"lng":116.29327,"avg_rating":3.0,"count":18,"Stars":{"All":18,"5s":4,"4s":9,"3s":4,"2s":0,"1s":1},"Region":"海淀区","BusinessName":"稻香村(上地店)","Address":"厢黄旗博雅西苑1号楼","tel":"010-82794676","BusinessType":"北京餐厅","Region2":"海淀区","SubRegion":"上地","SalesType":"老北京小吃", "comments":{"comments_count":42, "items":["我觉得性价比真的挺高的 但是还是有一些问题比方说 我从来没吃过蛋黄这么小 豆沙这么硬的蛋黄酥牛舌饼在南方没有吃过 觉得还不错抹茶酥和香芋酥也可以总之觉得性价比特别高 还是可以来随便吃吃的"]}},
{"business_id":2645884,"lat":40.03624,"lng":116.307076,"avg_rating":3.0,"count":8,"Stars":{"All":8,"5s":1,"4s":1,"3s":5,"2s":1,"1s":0},"Region":"海淀区","BusinessName":"花溪牛肉粉(上地三街店)","Address":"上地三街9号嘉华大厦内(上地环岛西侧)","tel":"无添加","BusinessType":"北京餐厅","Region2":"海淀区","SubRegion":"上地","SalesType":"粉面馆", "comments":{"comments_count":16, "items":["最早去的是上地十街，辉煌国际那边的花溪牛肉粉，第一次来这家花溪牛肉粉，据说是连锁的。感觉进去挺清爽感觉的，因为不是工作日，人比较少，环境也就觉得不错了。点了招牌的牛肉面，感觉没有炸酱面好吃。有好多人都会点一个肉末豆角的，感觉这个也很诱人，下次回来尝试一下。"]}},
{"business_id":1996108,"lat":40.042583,"lng":116.31094,"avg_rating":3.0,"count":4,"Stars":{"All":4,"5s":0,"4s":0,"3s":4,"2s":0,"1s":0},"Region":"海淀区","BusinessName":"兰州老马富贵拉面(上地东路店)","Address":"上地东路(得实大厦对面)","tel":"无添加","BusinessType":"北京餐厅","Region2":"海淀区","SubRegion":"上地","SalesType":"粉面馆", "comments":{"comments_count":20, "items":["#大盘鸡# #羊肉串# #炒面片# #拉条子# #肉加馍# #拉面# #咖喱鸡肉盖饭# 工作附近，还可以。"]}},
{"business_id":3148207,"lat":40.02022,"lng":116.31823,"avg_rating":3.5,"count":7,"Stars":{"All":7,"5s":2,"4s":3,"3s":2,"2s":0,"1s":0},"Region":"海淀区","BusinessName":"桂林风味","Address":"圆明园东路1号北京体育大学南门外","tel":"无添加","BusinessType":"北京餐厅","Region2":"海淀区","SubRegion":"上地","SalesType":"快餐/简餐", "comments":{"comments_count":12, "items":["还不错，味道很好，属于物美价廉适合学生族光顾。就是座位太少一到饭点就没座位了。"]}},
{"business_id":3693070,"lat":40.05518,"lng":116.3011,"avg_rating":3.0,"count":9,"Stars":{"All":9,"5s":2,"4s":2,"3s":4,"2s":1,"1s":0},"Region":"海淀区","BusinessName":"客为尊","Address":"上地东路1号院华控大厦104室(近联想)","tel":"010-58851981","BusinessType":"北京餐厅","Region2":"海淀区","SubRegion":"上地","SalesType":"快餐/简餐", "comments":{"comments_count":10, "items":["看起来还不错，中午人比较多，菜品也比较广泛。套餐两荤两素12元。总体还行。"]}},
{"business_id":4098386,"lat":40.05314,"lng":116.30217,"avg_rating":3.0,"count":29,"Stars":{"All":29,"5s":1,"4s":8,"3s":14,"2s":2,"1s":4},"Region":"海淀区","BusinessName":"辉煌国际地下美食广场","Address":"上地十街1号辉煌国际广场内(近百度大厦)","tel":"无添加","BusinessType":"北京餐厅","Region2":"海淀区","SubRegion":"上地","SalesType":"快餐/简餐", "comments":{"comments_count":35, "items":["一到饭点人特别多啊&nbsp;&nbsp;一般都是工作餐楼下有个十分钟，非常不错&nbsp;味道很清单，但是非常卫生"]}},
{"business_id":4129781,"lat":40.04018,"lng":116.313065,"avg_rating":3.0,"count":8,"Stars":{"All":8,"5s":1,"4s":1,"3s":4,"2s":0,"1s":2},"Region":"海淀区","BusinessName":"京味佳肴","Address":"上地东路(近上地绿都花卉市场)","tel":"无添加","BusinessType":"北京餐厅","Region2":"海淀区","SubRegion":"上地","SalesType":"家常菜", "comments":{"comments_count":11, "items":["这家真的是北京的厨子么？糊塌子！！！这么基础的北京菜，都没我做得好！简直就是个西葫芦发面饼。麻豆腐炒的太水了。打卤面真的好难吃，都是讯干的味道。菜量不大。"]}},
{"business_id":3090115,"lat":40.036346,"lng":116.3082,"avg_rating":3.0,"count":8,"Stars":{"All":8,"5s":0,"4s":2,"3s":6,"2s":0,"1s":0},"Region":"海淀区","BusinessName":"爱饭屋","Address":"上地三街9号嘉华大厦B座1楼(上地环岛西侧)","tel":"010-62967819","BusinessType":"北京餐厅","Region2":"海淀区","SubRegion":"上地","SalesType":"快餐/简餐", "comments":{"comments_count":17, "items":["他们家的饮料是自己打的，就是没有盖子，吃过一次鸡腿饭，味道还好吧，价格适中，感觉有点营养搭配的感觉，很干净的店，中午人不是很多。"]}},
{"business_id":3059524,"lat":40.052498,"lng":116.29779,"avg_rating":3.0,"count":8,"Stars":{"All":8,"5s":0,"4s":4,"3s":4,"2s":0,"1s":0},"Region":"海淀区","BusinessName":"五色谷快餐","Address":"上地中关村软件园","tel":"010-82773458","BusinessType":"北京餐厅","Region2":"海淀区","SubRegion":"上地","SalesType":"快餐/简餐", "comments":{"comments_count":24, "items":["五色谷送餐很准时，西红柿鸡蛋的9元，盆有点小，菜略少。不过西红柿炒蛋虽然简单，但是每个人做出来味道的差别还是很大的。我比较喜欢吃西红柿炒得很烂的那种，将西红柿汁都炸出来，然后用馒头沾汤。五色谷的就是如此，很喜欢。"]}},
{"business_id":3147424,"lat":40.03478,"lng":116.29025,"avg_rating":3.0,"count":19,"Stars":{"All":19,"5s":6,"4s":6,"3s":5,"2s":1,"1s":1},"Region":"海淀区","BusinessName":"满屋溢香","Address":"马莲洼北路(菊园小区对面)","tel":"010-62988913","BusinessType":"北京餐厅","Region2":"海淀区","SubRegion":"上地","SalesType":"烧烤", "comments":{"comments_count":27, "items":["节日聚会，第一次来，环境一般到是干净整齐，午餐8.8折。服务员也还比较认真！价格实惠。"]}},
{"business_id":4213741,"lat":40.036434,"lng":116.30703,"avg_rating":3.0,"count":14,"Stars":{"All":14,"5s":3,"4s":3,"3s":7,"2s":0,"1s":1},"Region":"海淀区","BusinessName":"古镇花溪(上地三街店)","Address":"上地三街9号嘉华大厦内(上地环岛西侧)","tel":"无添加","BusinessType":"北京餐厅","Region2":"海淀区","SubRegion":"上地","SalesType":"炸酱面", "comments":{"comments_count":18, "items":["晚餐改了点菜方式 昨天体验了一次 感觉还不错 不再是那些油腻的吃完剩一盘的菜了 素材很多 味道还行 改成按价格自选的拼菜 还有馒头和南瓜粥 本来觉得挺好 又适合北方口味 可以经常来了; 不过今天第二次来 点完菜付账时首先就遇到问题 明明写着8元的告诉我是10元的 想想算了吧差2块钱 嘿 吃完起身走时 服务员小妹又腆脸走过来&quot;先生请您端回来餐盘&quot; 好家伙 这么多年啊 居然还没改掉这个&quot;特色服务&quot; 要求客人吃完端餐盘 你不端还要提醒你 高峰事端人手不够也还能理解 你说这没多少人的时间 一堆服务员乍着俩爪子 有提醒客人的时间 自己过去端好不好 这也就是供求关系不平衡 写字楼人太多 否则这馆子估计早黄了"]}},
{"business_id":4297686,"lat":40.027557,"lng":116.29534,"avg_rating":3.5,"count":10,"Stars":{"All":10,"5s":3,"4s":7,"3s":0,"2s":0,"1s":0},"Region":"海淀区","BusinessName":"大都烧饼铺","Address":"农大南路厢黄旗(近厢黄旗车站)","tel":"无添加","BusinessType":"北京餐厅","Region2":"海淀区","SubRegion":"上地","SalesType":"其他小吃", "comments":{"comments_count":12, "items":["又装修好搬回来了，烧饼1.5快一个，真的很好吃，不过好像不好这口的怎么也吃不惯"]}},
{"business_id":5374308,"lat":40.04838,"lng":116.30732,"avg_rating":3.0,"count":10,"Stars":{"All":10,"5s":2,"4s":3,"3s":2,"2s":1,"1s":2},"Region":"海淀区","BusinessName":"吉祥馄饨(上地八街店)","Address":"上地八街(近西二旗地铁b口)","tel":"无添加","BusinessType":"北京餐厅","Region2":"海淀区","SubRegion":"上地","SalesType":"快餐/简餐", "comments":{"comments_count":12, "items":["只吃过一次酸菜肉丝面感觉挺一般的，想吃叉烧云吞面，可是没有的……店面很小，服务也不算太好。但是，馄饨倒是很大一个，一份十个，就是吉祥馄饨麻酱还要另收费什么的……哎"]}},
{"business_id":5306518,"lat":40.053154,"lng":116.30226,"avg_rating":3.0,"count":14,"Stars":{"All":14,"5s":0,"4s":4,"3s":7,"2s":3,"1s":0},"Region":"海淀区","BusinessName":"悠米时尚麻辣烫(辉煌国际店)","Address":"上地十街1号院辉煌国际1楼","tel":"无添加","BusinessType":"北京餐厅","Region2":"海淀区","SubRegion":"上地","SalesType":"麻辣烫", "comments":{"comments_count":24, "items":["菜式一般，不过小料不错，大爱麻酱和麻椒油，面筋鱼豆腐香菇还不错"]}},
{"business_id":8990437,"lat":40.051426,"lng":116.30364,"avg_rating":3.5,"count":3,"Stars":{"All":3,"5s":1,"4s":1,"3s":1,"2s":0,"1s":0},"Region":"海淀区","BusinessName":"第1佳大鸡排","Address":"上地九街9号数码科技广场(近西二旗地铁站B口)","tel":"无添加","BusinessType":"北京餐厅","Region2":"海淀区","SubRegion":"上地","SalesType":"其他小吃", "comments":{"comments_count":6, "items":["以前都是跟老公去三里屯买一个鸡排俩人吃，后来西二旗也有了自己的大鸡排。反而没有以前向往了，味道还是一样滴"]}},
{"business_id":2062147,"lat":40.03676,"lng":116.30864,"avg_rating":3.0,"count":25,"Stars":{"All":25,"5s":3,"4s":4,"3s":15,"2s":1,"1s":2},"Region":"海淀区","BusinessName":"滇池一家(嘉华店)","Address":"上地三街9号嘉华大厦1楼D座(上地环岛西侧)","tel":"010-62976322","BusinessType":"北京餐厅","Region2":"海淀区","SubRegion":"上地","SalesType":"粉面馆", "comments":{"comments_count":87, "items":["招牌米线味道比较淡，菌锅的米线推荐。荷叶炒饭稍微有些油。工作餐吃吃。"]}},
{"business_id":2281063,"lat":40.0482,"lng":116.29541,"avg_rating":3.0,"count":3,"Stars":{"All":3,"5s":0,"4s":1,"3s":2,"2s":0,"1s":0},"Region":"海淀区","BusinessName":"春和饺子面馆","Address":"西北旺路口往西100米路北(春和饺子馆对面)","tel":"无添加","BusinessType":"北京餐厅","Region2":"海淀区","SubRegion":"上地","SalesType":"粉面馆", "comments":{"comments_count":9, "items":["平平的一家饺子馆，但是人却十分的多。每个饺子都很大，是现包现煮的，饺子3两起点。这家的饺子，肉馅很大，大包皮长得不好看但是味道还是可以的。凉菜都是他家自己种的说。有些特点的酱骨和小菜 价钱不算高也不算便宜。每到冬至都是吃饺子的时节，这家也能等座..."]}},
{"business_id":3311161,"lat":40.03676,"lng":116.30864,"avg_rating":3.5,"count":7,"Stars":{"All":7,"5s":2,"4s":2,"3s":2,"2s":1,"1s":0},"Region":"海淀区","BusinessName":"桂林米粉","Address":"上地三街9号嘉华大厦1楼A107号(上地环岛西侧)","tel":"无添加","BusinessType":"北京餐厅","Region2":"海淀区","SubRegion":"上地","SalesType":"粉面馆", "comments":{"comments_count":10, "items":["很少去店里吃，都是叫外卖送到公司，喜欢他们家的酸辣笋尖粉，酸辣酸辣的笋尖也爽脆，里面可以加个鸡蛋，还可以单点青菜和豇豆，花生米等，几块钱一份都不贵，如果不吃辣，可以点那个蘑菇的米粉，不够好像喜欢吃笋尖的比较多，米粉量也不少，主要是这个东西吃了涨肚，一份米粉吃完了，晚上基本可以不用吃，剩了一顿，不过话说回来米粉不好消化，胃不好的还是要少吃，健康最重要"]}},
{"business_id":3659773,"lat":40.023914,"lng":116.293205,"avg_rating":3.0,"count":19,"Stars":{"All":19,"5s":1,"4s":4,"3s":13,"2s":1,"1s":0},"Region":"海淀区","BusinessName":"庆丰包子铺(农大南路店)","Address":"农大南路(厢黄旗路丁字路口路南)","tel":"无添加","BusinessType":"北京餐厅","Region2":"海淀区","SubRegion":"上地","SalesType":"包子", "comments":{"comments_count":21, "items":["离住的地方超近，点了一两包子和一碟凉拌海带丝，包子不太喜欢，海带丝居然是酸甜酸甜的。"]}},
{"business_id":4108824,"lat":40.033463,"lng":116.31957,"avg_rating":3.5,"count":30,"Stars":{"All":30,"5s":6,"4s":12,"3s":9,"2s":2,"1s":1},"Region":"海淀区","BusinessName":"庆丰包子铺(上地城铁店)","Address":"上地城铁站出口北侧(近上地家园)","tel":"010-62911383","BusinessType":"北京餐厅","Region2":"海淀区","SubRegion":"上地","SalesType":"包子", "comments":{"comments_count":33, "items":["我吃过两次庆丰包子，这家是在上地城铁附近，包子挺好吃的，老字号，干净卫生"]}},
{"business_id":6131776,"lat":40.029236,"lng":116.31156,"avg_rating":3.5,"count":5,"Stars":{"All":5,"5s":0,"4s":2,"3s":3,"2s":0,"1s":0},"Region":"海淀区","BusinessName":"江宁鸭血粉丝汤","Address":"农大南路1号院1号楼华联商厦B1楼(上地南口)","tel":"无添加","BusinessType":"北京餐厅","Region2":"海淀区","SubRegion":"上地","SalesType":"粉面馆", "comments":{"comments_count":7, "items":["感觉味道比较一般，没有南京大排档的好吃~，跟正宗的南京鸭血粉丝还是有不小差距"]}},
{"business_id":8961600,"lat":40.053368,"lng":116.313995,"avg_rating":3.0,"count":3,"Stars":{"All":3,"5s":0,"4s":2,"3s":1,"2s":0,"1s":0},"Region":"海淀区","BusinessName":"吉祥馄饨(益民商城店)","Address":"西二旗大街5号西二旗益民商城底商(近铭科苑小区)","tel":"13164249259","BusinessType":"北京餐厅","Region2":"海淀区","SubRegion":"上地","SalesType":"快餐/简餐", "comments":{"comments_count":6, "items":["上次去吃，男朋友要了蛋黄鲜肉的馄饨，有一个馄饨的蛋黄坏了，是臭的，印象很不好。"]}},
{"business_id":2580451,"lat":40.04273,"lng":116.30949,"avg_rating":3.0,"count":12,"Stars":{"All":12,"5s":2,"4s":4,"3s":6,"2s":0,"1s":0},"Region":"海淀区","BusinessName":"壮乡桂林米粉","Address":"上地东路4街(联想对面)","tel":"无添加","BusinessType":"北京餐厅","Region2":"海淀区","SubRegion":"上地","SalesType":"粉面馆", "comments":{"comments_count":27, "items":["牛腩粉12元，味道还行，和广西当地的比，也差不多。来的时候七点多，没人了，一个人包场。感冒没敢加辣，下回来试试别的口味。"]}},
{"business_id":3035569,"lat":40.033463,"lng":116.31768,"avg_rating":3.5,"count":5,"Stars":{"All":5,"5s":1,"4s":4,"3s":0,"2s":0,"1s":0},"Region":"海淀区","BusinessName":"金丝枣糕王(上地店)","Address":"上地东路上地佳园底商","tel":"无添加","BusinessType":"北京餐厅","Region2":"海淀区","SubRegion":"上地","SalesType":"其他小吃", "comments":{"comments_count":13, "items":["巨难吃，吃了两块就放那了，忘了，放了一个周居然没坏，考，特爱吃枣糕，太失望了这家"]}},
{"business_id":2483416,"lat":40.037334,"lng":116.307846,"avg_rating":3.0,"count":8,"Stars":{"All":8,"5s":3,"4s":0,"3s":5,"2s":0,"1s":0},"Region":"海淀区","BusinessName":"多味轩","Address":"上地三街9号嘉华大厦F座105-106号(上地环岛西侧)","tel":"010-82782796","BusinessType":"北京餐厅","Region2":"海淀区","SubRegion":"上地","SalesType":"快餐/简餐", "comments":{"comments_count":13, "items":["嘉华大厦里面的快餐厅,川菜口味,中午以份饭和盖饭为主,晚上以盖饭和炒菜为主.相对而言,此店在嘉华众多餐厅里面算是性价比超高,份饭和盖饭普遍比别处便宜2元左右,而且菜量大,饭管饱,是一个非常棒的解决工作午餐的地方.正因如此,生意火爆,中午过来总是人满为患,小小的过道上,总是挤满了等待位置的人.如果中午吃饭时间紧急,那么来这里就要面临木有位置的困境了.由于人多,服务基本上就谈不上了,大家基本上是半自助的形式,有的时候连桌面也得自己动手收拾,服务员会忙得顾不上来收拾桌子.菜品的味道和质量也还不错,能够满足中午快餐的要求,但是有点多油,盖饭尤其如此."]}},
{"business_id":2517946,"lat":40.028873,"lng":116.27621,"avg_rating":3.0,"count":28,"Stars":{"All":28,"5s":2,"4s":12,"3s":14,"2s":0,"1s":0},"Region":"海淀区","BusinessName":"合利屋快餐(百旺店)","Address":"圆明园西路18号中发百旺商城5楼(近中国农大)","tel":"010-62838111","BusinessType":"北京餐厅","Region2":"海淀区","SubRegion":"上地","SalesType":"快餐/简餐", "comments":{"comments_count":51, "items":["特别想吃石锅拌饭，所以就过来了，这家店就在百旺商城的五层，吃了很多次的店了，价格涨了很多，不过分量和味道都还不错了。他家最喜欢的就是石锅拌饭了，但是为啥今天么有五花肉的拌饭了呢，想吃啊，点了一个牛肉的石锅拌饭和一个鱿鱼的石锅拌饭，鱿鱼的是没有煎蛋的（五花肉的也没有），其它的拌饭都是由煎蛋的哦。这次的拌饭下面没有锅巴啊，以前都会有的呢。他家的辣酱等调味品都是在收银的地方放着，有很多种，可以自己过去拿来加的"]}},
{"business_id":3103822,"lat":40.042583,"lng":116.31094,"avg_rating":3.0,"count":10,"Stars":{"All":10,"5s":1,"4s":3,"3s":6,"2s":0,"1s":0},"Region":"海淀区","BusinessName":"杜式酸辣粉(上地东路店)","Address":"上地东路85号(近上地佳园)","tel":"010-58400893","BusinessType":"北京餐厅","Region2":"海淀区","SubRegion":"上地","SalesType":"粉面馆", "comments":{"comments_count":14, "items":["离城铁很近，路过吃点很方便，招牌是酸辣粉但他们家其他的也有不错的选择，鸡丝凉面本人比较喜欢麻酱面也不错，价位适中"]}},
{"business_id":4290781,"lat":40.03396,"lng":116.31804,"avg_rating":3.5,"count":45,"Stars":{"All":45,"5s":5,"4s":16,"3s":14,"2s":7,"1s":3},"Region":"海淀区","BusinessName":"麦当劳(上地佳园店)","Address":"上地东二路上地佳园34号(近上地城铁)","tel":"010-62970811","BusinessType":"北京餐厅","Region2":"海淀区","SubRegion":"上地","SalesType":"快餐/简餐", "comments":{"comments_count":55, "items":["喜欢麦当劳家的薯条和番茄酱还有麦旋风,最喜欢这家店得薯条,盐撒的正好,总觉得东西如果盐正好的话,就会很美味,觉得加上番茄酱,真的很美味,跟男朋友约会就会点上2包大薯条,2个麦旋风,吃的很嗨"]}},
{"business_id":4663129,"lat":40.047306,"lng":116.29795,"avg_rating":3.0,"count":4,"Stars":{"All":4,"5s":0,"4s":2,"3s":2,"2s":0,"1s":0},"Region":"海淀区","BusinessName":"汉王大食堂","Address":"东北旺西路中关村软件园05号汉王大厦B1楼","tel":"无添加","BusinessType":"北京餐厅","Region2":"海淀区","SubRegion":"上地","SalesType":"快餐/简餐", "comments":{"comments_count":5, "items":["原价13每位，现价15每位。。。但是质量并没有随着价格的上涨而有所改善，反而每况愈下啊"]}},
{"business_id":5284890,"lat":40.015366,"lng":116.301765,"avg_rating":3.0,"count":3,"Stars":{"All":3,"5s":0,"4s":2,"3s":1,"2s":0,"1s":0},"Region":"海淀区","BusinessName":"肯德基(宝盛里店)","Address":"北五环外林翠路(宝盛里路口)","tel":"无添加","BusinessType":"北京餐厅","Region2":"海淀区","SubRegion":"上地","SalesType":"快餐/简餐", "comments":{"comments_count":3, "items":["其实我不喜欢吃油炸食品，只是有时路过的时候喜欢去肯德基坐一下喝个水什么的。这个离家近所以还算常去，人不多，通常都会有位置。"]}},
{"business_id":8966454,"lat":40.02681,"lng":116.300385,"avg_rating":3.0,"count":7,"Stars":{"All":7,"5s":2,"4s":1,"3s":2,"2s":1,"1s":1},"Region":"海淀区","BusinessName":"兰州馨鼎拉面馆","Address":"农大南路33号院","tel":"010-62825743","BusinessType":"北京餐厅","Region2":"海淀区","SubRegion":"上地","SalesType":"粉面馆", "comments":{"comments_count":9, "items":["团购的四人餐 大盘鸡很好吃 鱼块没有腥味 酸甜口 好吃 干净卫生 量大 总之很满意"]}},
{"business_id":2356456,"lat":40.05425,"lng":116.29587,"avg_rating":3.5,"count":3,"Stars":{"All":3,"5s":1,"4s":1,"3s":1,"2s":0,"1s":0},"Region":"海淀区","BusinessName":"河间驴肉火烧","Address":"西北旺路","tel":"无添加","BusinessType":"北京餐厅","Region2":"海淀区","SubRegion":"上地","SalesType":"其他小吃", "comments":{"comments_count":9, "items":["还不错，吃的人挺多的，价钱也还行，同事们推荐的，他们经常吃。"]}},
{"business_id":2420464,"lat":40.05213,"lng":116.26626,"avg_rating":3.0,"count":1,"Stars":{"All":1,"5s":0,"4s":0,"3s":0,"2s":1,"1s":0},"Region":"海淀区","BusinessName":"夏霖园饺子馆","Address":"西北旺百旺新城夏霖园西南角","tel":"无添加","BusinessType":"北京餐厅","Region2":"海淀区","SubRegion":"上地","SalesType":"饺子", "comments":{"comments_count":8, "items":["这是一次失败的就餐&nbsp;吃了一顿饺子&nbsp;害得我和我同事 拉了2天肚子&nbsp; 哎&nbsp;估计是饺子馅过期了&nbsp;我们吃的是葱头肉的"]}},
{"business_id":2894284,"lat":40.028034,"lng":116.31138,"avg_rating":3.0,"count":63,"Stars":{"All":63,"5s":7,"4s":28,"3s":21,"2s":3,"1s":4},"Region":"海淀区","BusinessName":"肯德基(上地华联店)","Address":"农大南路1号院1号楼华联商厦","tel":"010-62968220","BusinessType":"北京餐厅","Region2":"海淀区","SubRegion":"上地","SalesType":"快餐/简餐", "comments":{"comments_count":93, "items":["肯德基在中国成了最亲民的店，不仅到处都是，而且免费提供洗手间。大部分餐厅还可以使用公交卡结算，超爱啊。而且肯爷爷紧跟中国人的口味，推出各种饭，足料饭套餐，里面可以吃到牛肉、鸡肉、蘑菇、虾，当然都是有主题的。配合一款汤品，鱼丸汤、蔬菜汤，还有木耳或者玉米粒这类的小吃，虽然量都很少，但是女孩子应该可以吃饱的。即便再花五元五角钱加一对做活动的鸡翅（两只）也是吃得蛮好蛮好滴，无怪乎，好多大爷大妈都来光顾，这点肯大爷比麦叔叔眼光长远得多，也更为贴心。足量饭用的勺子都是肯德基特别设计的，是叉子跟勺子的合体，很帅，无限感慨于肯德基的本土化"]}},
{"business_id":2894350,"lat":40.03632,"lng":116.31204,"avg_rating":3.0,"count":9,"Stars":{"All":9,"5s":1,"4s":6,"3s":2,"2s":0,"1s":0},"Region":"海淀区","BusinessName":"地瓜坊(上地店)","Address":"上地环岛南车站","tel":"无添加","BusinessType":"北京餐厅","Region2":"海淀区","SubRegion":"上地","SalesType":"零食", "comments":{"comments_count":19, "items":["很小的一个店，烤地瓜非常好吃，挨着城铁呢，也很方便，有时候下班的时候会去买一块，就不用吃饭了"]}},
{"business_id":5208260,"lat":40.037655,"lng":116.30842,"avg_rating":3.0,"count":4,"Stars":{"All":4,"5s":0,"4s":1,"3s":3,"2s":0,"1s":0},"Region":"海淀区","BusinessName":"百姓家","Address":"上地三街9号嘉华大厦F座1楼","tel":"无添加","BusinessType":"北京餐厅","Region2":"海淀区","SubRegion":"上地","SalesType":"其他小吃", "comments":{"comments_count":5, "items":["附近饭店说多不多说少不少，这家也是无意走到发现的，多数都是盖饭，便跑来尝鲜。记得第一次吃的是笋干烧肉饭，略咸，不过肉还挺香。后来就陆续来了不少次，番茄蛋饭，番茄偏酸，但番茄拌面又还不错。陪得卷心菜之类的，真真儿像是咸菜了。值得一提的是跟前人点评的价格着实是差好多，几乎都是长了一半的价格，也能窥得物价上涨的架势一斑。。"]}},
{"business_id":5141285,"lat":40.029236,"lng":116.31156,"avg_rating":3.0,"count":14,"Stars":{"All":14,"5s":0,"4s":4,"3s":9,"2s":0,"1s":1},"Region":"海淀区","BusinessName":"亚惠厨房(农大南路店)","Address":"农大南路1号院1号楼华联商厦B1楼(近上地南口)","tel":"无添加","BusinessType":"北京餐厅","Region2":"海淀区","SubRegion":"上地","SalesType":"快餐/简餐", "comments":{"comments_count":18, "items":["粥、包子、小凉菜、白米饭很棒肯定用的好米，各种炒菜，饮料也有，办卡遇到会员日充100送20，平时还打九折，工作餐挺好的！"]}},
{"business_id":2622691,"lat":40.0358,"lng":116.31128,"avg_rating":3.0,"count":2,"Stars":{"All":2,"5s":0,"4s":0,"3s":2,"2s":0,"1s":0},"Region":"海淀区","BusinessName":"蒸膳美中式营养快餐","Address":"上地城铁正对面","tel":"010-62961976","BusinessType":"北京餐厅","Region2":"海淀区","SubRegion":"上地","SalesType":"快餐/简餐", "comments":{"comments_count":5, "items":["千万别点套餐！！！ 记得单点，再自己搭配都比较划算。丸子套餐23元，一个青菜4个丸子一个汤一个米饭。量少味道一般，感觉不划算。套餐里有个鸭汤有股怪味，我说换别的汤，就给换了个紫菜汤。如果单点紫菜汤要便宜6元，但是老板说是点的套餐，就坚决不退钱。一顿饭吃的很不痛快"]}},
{"business_id":2738143,"lat":40.037334,"lng":116.307846,"avg_rating":3.0,"count":6,"Stars":{"All":6,"5s":0,"4s":3,"3s":3,"2s":0,"1s":0},"Region":"海淀区","BusinessName":"有余轩褡裢火烧","Address":"上地三街9号嘉华大厦内(上地环岛西侧)","tel":"无添加","BusinessType":"北京餐厅","Region2":"海淀区","SubRegion":"上地","SalesType":"老北京小吃", "comments":{"comments_count":7, "items":["嘉华大厦的早餐,差不多都让这家给卖光了吧??午餐品种很少,专卖饺子和面条,味道么,就一般般了,上餐的速度比较快,煎饼还算可以,只是比较油,性价比很高,午餐12块就可以搞定了.偶尔想吃饺子的时候,就会想起这里."]}},
{"business_id":2925643,"lat":40.033768,"lng":116.28617,"avg_rating":3.5,"count":3,"Stars":{"All":3,"5s":0,"4s":2,"3s":0,"2s":1,"1s":0},"Region":"海淀区","BusinessName":"杜氏酸辣粉(马连洼店)","Address":"马连洼北路武警印刷厂晨光物业211室(近百旺商城)","tel":"010-62898171","BusinessType":"北京餐厅","Region2":"海淀区","SubRegion":"上地","SalesType":"其他小吃", "comments":{"comments_count":8, "items":["酸酸辣辣的重口味最喜欢了，有别于其他家酸辣粉店，有种特别的味道，还有牛肉粉等选择。可以加放其他的东东在里面，比如鱼豆腐"]}},
{"business_id":2543302,"lat":40.037334,"lng":116.307846,"avg_rating":3.0,"count":5,"Stars":{"All":5,"5s":0,"4s":0,"3s":5,"2s":0,"1s":0},"Region":"海淀区","BusinessName":"分分钟","Address":"上地三街9号嘉华大厦内(上地环岛西侧)","tel":"无添加","BusinessType":"北京餐厅","Region2":"海淀区","SubRegion":"上地","SalesType":"快餐/简餐", "comments":{"comments_count":11, "items":["来这吃过一次面，味道一般，就是快餐性质的，解决个温饱，不用有太多期待"]}},
{"business_id":2594035,"lat":40.04197,"lng":116.31159,"avg_rating":3.0,"count":28,"Stars":{"All":28,"5s":4,"4s":9,"3s":13,"2s":1,"1s":1},"Region":"海淀区","BusinessName":"三元梅园(上地店)","Address":"上地东路上地家园40号底商(近城铁站)","tel":"15711365041","BusinessType":"北京餐厅","Region2":"海淀区","SubRegion":"上地","SalesType":"老北京小吃", "comments":{"comments_count":44, "items":["最爱去的一家店了，必须全好~从我住上地开始就差不多一个星期最少去三次，卤肉饭是俺家媳妇儿的最爱，咖喱鸡肉是俺的常备餐，意大利面也不错，虽然不一定特别正宗（毕竟主打的是传统奶制品么）；两个经常在岗的阿姨都超级好，很聊得来，也可以说之所以一直没搬家，很大一部分都是舍不得这地方的好吃的。酸奶什么的也不错，都当天现做的。自制的蛋糕也不来，不过比起旁边的味多美来，他家15块钱一块的就显得有那么一点稍微贵了，饭量很足，总体还是很值得的"]}},
{"business_id":3649738,"lat":40.029236,"lng":116.31156,"avg_rating":4.0,"count":11,"Stars":{"All":11,"5s":4,"4s":2,"3s":4,"2s":0,"1s":1},"Region":"海淀区","BusinessName":"稻香村(上地华联店)","Address":"农大南路1号院1号楼华联商厦B1楼(近上地南口)","tel":"无添加","BusinessType":"北京餐厅","Region2":"海淀区","SubRegion":"上地","SalesType":"老北京小吃", "comments":{"comments_count":16, "items":["我家就住在华联附近，这是有几天去的，就是一直没有时间点评，现在才点，很不错我很喜欢吃"]}},
{"business_id":3880363,"lat":40.03596,"lng":116.307274,"avg_rating":3.5,"count":11,"Stars":{"All":11,"5s":1,"4s":3,"3s":7,"2s":0,"1s":0},"Region":"海淀区","BusinessName":"聚瑞祥美国加州牛肉面大王(上地三街店)","Address":"上地三街9号嘉华大厦A座西南角(上地环岛西侧)","tel":"010-62968702","BusinessType":"北京餐厅","Region2":"海淀区","SubRegion":"上地","SalesType":"粉面馆", "comments":{"comments_count":13, "items":["刚来的时候就被同事带着来的这家，他们吃的特别的执着，一次又一次的，貌似已经连着两个月没有换过地方了。。我跟另一个新来的姑娘受不了了，俩人就不停地换着到处试。这家跟以前肯定是提价了，而且我来的这段时间都几乎每道长个一块钱。凉面觉得挺普通，鱼香肉丝饭还行，也就是同事吃的最坚持的那道，几个月都没换过，不过还行让我天天吃我也受不了的。卤肉饭真尼玛难吃，一点没有那种肉香，卤法问题，不过也是14、5的价格，不能指望太多虽然来吃的人总不少，但总是有地方坐，这点还不错啦。"]}},
{"business_id":4092460,"lat":40.033768,"lng":116.28617,"avg_rating":3.0,"count":4,"Stars":{"All":4,"5s":0,"4s":3,"3s":1,"2s":0,"1s":0},"Region":"海淀区","BusinessName":"粥公粥婆","Address":"马连洼北路北侧","tel":"无添加","BusinessType":"北京餐厅","Region2":"海淀区","SubRegion":"上地","SalesType":"粥店", "comments":{"comments_count":4, "items":["喜欢里面的粥，味道还是不错的哦。服务员态度也很好，上粥也很速度。小菜的口味也不错，环境有点不太理想。不过在这边粥的口味还是算不错的。。"]}},
{"business_id":4296701,"lat":40.035625,"lng":116.31203,"avg_rating":3.5,"count":7,"Stars":{"All":7,"5s":1,"4s":3,"3s":3,"2s":0,"1s":0},"Region":"海淀区","BusinessName":"薯栗同香","Address":"上地城铁附近","tel":"无添加","BusinessType":"北京餐厅","Region2":"海淀区","SubRegion":"上地","SalesType":"零食", "comments":{"comments_count":7, "items":["每次路过必买的就是栗子，有时候晚上过去还买不到，都卖完了，他们家的栗子价位不贵，品质又好，吃起来味道就是不一样，坏的也比较少，就在公交站旁边，等公交的时候买上一袋栗子边吃边等，不会太寂寞，呵呵"]}},
{"business_id":5141278,"lat":40.028233,"lng":116.31158,"avg_rating":3.0,"count":4,"Stars":{"All":4,"5s":1,"4s":0,"3s":3,"2s":0,"1s":0},"Region":"海淀区","BusinessName":"丽江米线","Address":"农大南路1号院1号楼华联商厦(近上地南口)","tel":"无添加","BusinessType":"北京餐厅","Region2":"海淀区","SubRegion":"上地","SalesType":"粉面馆", "comments":{"comments_count":10, "items":["上地华联负一层的米线店，总体来说还好吧，有时候在华联逛到饭店就在下面随便吃点，口味儿比较清淡，青菜很新鲜，而且米线给的多，吃不完的。碗的形状挺有意思的，有点圆的三角形。华联负一层的这类饭馆，都需要去办张饭卡，随时都能退的，也算方便。"]}},
{"business_id":5306501,"lat":40.052727,"lng":116.301605,"avg_rating":3.5,"count":3,"Stars":{"All":3,"5s":0,"4s":3,"3s":0,"2s":0,"1s":0},"Region":"海淀区","BusinessName":"美国加州牛肉面","Address":"上地十街1号院辉煌国际B1楼","tel":"010-82176544","BusinessType":"北京餐厅","Region2":"海淀区","SubRegion":"上地","SalesType":"粉面馆", "comments":{"comments_count":5, "items":["凉面好吃，还有盖饭和面食，价格不贵，其他的就见仁见智了......"]}},
{"business_id":6264022,"lat":40.037155,"lng":116.306854,"avg_rating":3.0,"count":4,"Stars":{"All":4,"5s":0,"4s":1,"3s":3,"2s":0,"1s":0},"Region":"海淀区","BusinessName":"寻客","Address":"上地七街","tel":"无添加","BusinessType":"北京餐厅","Region2":"海淀区","SubRegion":"上地","SalesType":"快餐/简餐", "comments":{"comments_count":7, "items":["附近吃早点的地儿，来根油条、一碗豆腐脑、咸菜少许，也挺吃的挺好，最起码比其他小摊的干净。环境也很敞亮，碗筷收拾的很及时。"]}},
{"business_id":2006302,"lat":40.05518,"lng":116.3011,"avg_rating":3.5,"count":9,"Stars":{"All":9,"5s":1,"4s":2,"3s":6,"2s":0,"1s":0},"Region":"海淀区","BusinessName":"一点味(上地店)","Address":"上地东路1号院华控大厦1楼","tel":"010-58858695","BusinessType":"北京餐厅","Region2":"海淀区","SubRegion":"上地","SalesType":"快餐/简餐", "comments":{"comments_count":19, "items":["就在公司楼下，工作餐还不错，去了还有免费饮料。不过一般都是订餐的，最喜欢排骨饭，香香辣辣的很开胃。卤肉饭有些腻了"]}},
{"business_id":2901376,"lat":40.055836,"lng":116.40642,"avg_rating":3.0,"count":4,"Stars":{"All":4,"5s":0,"4s":2,"3s":2,"2s":0,"1s":0},"Region":"海淀区","BusinessName":"老马家拉面","Address":"北请路(近航天城)","tel":"无添加","BusinessType":"北京餐厅","Region2":"海淀区","SubRegion":"上地","SalesType":"粉面馆", "comments":{"comments_count":7, "items":["夏天选择这家吃饭还是很惬意的，尤其是晚上，吃点大排挡的烧烤，很不错，味也还行"]}},
{"business_id":3495355,"lat":40.033558,"lng":116.31874,"avg_rating":3.0,"count":2,"Stars":{"All":2,"5s":1,"4s":1,"3s":0,"2s":0,"1s":0},"Region":"海淀区","BusinessName":"绿栗香","Address":"上地城铁附近","tel":"无添加","BusinessType":"北京餐厅","Region2":"海淀区","SubRegion":"上地","SalesType":"零食", "comments":{"comments_count":3, "items":["家住上地，附近卖糖炒栗子的地儿基本都吃过一遍了，这家还行，不算惊艳但质量也不错了，还是那句话，刚出锅了怎么都难吃不了，他家栗子大小都有，我比较爱吃小的，感觉更糯更甜，随便吃吃吧~"]}},
{"business_id":2624116,"lat":40.029236,"lng":116.31156,"avg_rating":3.0,"count":4,"Stars":{"All":4,"5s":0,"4s":2,"3s":2,"2s":0,"1s":0},"Region":"海淀区","BusinessName":"食阁小吃城","Address":"农大南路1号院1号楼华联商厦B1楼(近上地南口)","tel":"010-82771188","BusinessType":"北京餐厅","Region2":"海淀区","SubRegion":"上地","SalesType":"其他小吃", "comments":{"comments_count":8, "items":["在点评上找了半天，才找到这个店家，看到点评内容都是很早以前的，这个店家已经改名了，现在叫华联美食城了，地点还在上地华联的B1层，好像重新装修了，改用美食卡结账了，卡的押金10元，可退还。里面有很多档口，有麻辣烫、香锅、面、蒸菜等等，麻辣香锅满30元免收锅底（5元），我们吃了蒸菜，一小碗一小碗的，从4元到8元不等，腊味合蒸、干豆皮、鸡胗都很好吃，还送小米粥，还要了另一家档口的荷叶香肠炒饭，很不错的。价格便宜，味道不错，就是地方是半开放的，环境比较差，吃饭的人大多是来超市买东西的，人很多，位子不太好找。"]}},
{"business_id":3453448,"lat":40.03365,"lng":116.290115,"avg_rating":3.0,"count":3,"Stars":{"All":3,"5s":0,"4s":1,"3s":2,"2s":0,"1s":0},"Region":"海淀区","BusinessName":"马连洼西单翅酷","Address":"马连洼北路(近菊园)","tel":"010-62644835","BusinessType":"北京餐厅","Region2":"海淀区","SubRegion":"上地","SalesType":"烧烤", "comments":{"comments_count":3, "items":["想吃烤翅 发现这头还有一家西单翅酷就去了 不太好找 在大厦底商 但是不靠近马路&nbsp;这家店总感觉应该是加盟的吧 不是很正规&nbsp;因为主打盖饭 可能在写字楼底商 这个更赚钱些吧&nbsp;点了烤翅 烤蔬菜 羊肉串 味道还可以吧"]}},
{"business_id":3645886,"lat":40.03744,"lng":116.31473,"avg_rating":3.0,"count":4,"Stars":{"All":4,"5s":0,"4s":2,"3s":2,"2s":0,"1s":0},"Region":"海淀区","BusinessName":"港昌江西瓦罐汤吧","Address":"上地东路(近上地城铁站)","tel":"无添加","BusinessType":"北京餐厅","Region2":"海淀区","SubRegion":"上地","SalesType":"其他小吃", "comments":{"comments_count":5, "items":["2年后再访，价格几乎不变。人气火爆，经常满座，但是不至于等位，原因是周围小苍蝇管子很多，大家犯不上为这个耽误宝贵午休时间。他家的汤熬得还是很见功夫，这次要得排骨海带，没有什么人工痕迹，却把食材的味道入到了汤里。南昌米粉分类很多，他家的炒米粉明显有米的糯感。卫生，环境，服务都相当于成小水平吧。"]}},
{"business_id":4100693,"lat":40.029827,"lng":116.313614,"avg_rating":3.5,"count":7,"Stars":{"All":7,"5s":0,"4s":5,"3s":2,"2s":0,"1s":0},"Region":"海淀区","BusinessName":"肯德基(上地科贸店)","Address":"上地东里4号一区科贸大厦","tel":"无添加","BusinessType":"北京餐厅","Region2":"海淀区","SubRegion":"上地","SalesType":"快餐/简餐", "comments":{"comments_count":9, "items":["是一家24h营业的店，因为要赶早班飞机，选择在这边先吃个早点，大概5点的样子到的，东西少的可怜，基本上就是有什么吃什么了。"]}},
{"business_id":5299230,"lat":40.02447,"lng":116.29939,"avg_rating":3.5,"count":4,"Stars":{"All":4,"5s":0,"4s":3,"3s":1,"2s":0,"1s":0},"Region":"海淀区","BusinessName":"田老师红烧肉(农大南路店)","Address":"农大南路88号万霖广场","tel":"无添加","BusinessType":"北京餐厅","Region2":"海淀区","SubRegion":"上地","SalesType":"快餐/简餐", "comments":{"comments_count":15, "items":["这家是我感觉我吃过的所有田老师里最好吃的一家如果不是赶上饭点儿去，给的还特别多，好像还能便宜1块钱"]}},
{"business_id":5525496,"lat":40.04432,"lng":116.3098,"avg_rating":3.0,"count":4,"Stars":{"All":4,"5s":0,"4s":3,"3s":1,"2s":0,"1s":0},"Region":"海淀区","BusinessName":"田老师红烧肉(上地六街店)","Address":"上地西路上地六街(醉江南对面)","tel":"无添加","BusinessType":"北京餐厅","Region2":"海淀区","SubRegion":"上地","SalesType":"快餐/简餐", "comments":{"comments_count":11, "items":["就花了8块钱点了个番茄鸡蛋面，这个凉面味道挺不错的。但是一起去的同事点了红烧肉觉得没味道，所以田老师就是饿了吃点，上班赶时间吃点。20130908，20130915"]}},
{"business_id":582610,"lat":40.04563,"lng":116.30384,"avg_rating":2.0,"count":139,"Stars":{"All":139,"5s":12,"4s":56,"3s":57,"2s":12,"1s":2},"Region":"海淀区","BusinessName":"鸿毛饺子(上地七街店)","Address":"上地信息路1号(北京银行旁)","tel":"010-82894666","BusinessType":"北京餐厅","Region2":"海淀区","SubRegion":"上地","SalesType":"饺子", "comments":{"comments_count":325, "items":["就在单位附近，有的时候会跟同事去吃，中午的时候，人很多，需要排队，饺子也得等一会儿，不过味道还是不错的，价格不便宜也不贵"]}},
{"business_id":2214151,"lat":40.03525,"lng":116.31138,"avg_rating":2.0,"count":234,"Stars":{"All":234,"5s":18,"4s":85,"3s":114,"2s":11,"1s":6},"Region":"海淀区","BusinessName":"海丽轩烤肉店(科实店)","Address":"信息路甲28号科实大厦2楼(上地环岛东南角)","tel":"010-82781161","BusinessType":"北京餐厅","Region2":"海淀区","SubRegion":"上地","SalesType":"自助餐", "comments":{"comments_count":714, "items":["这几自助烤肉店环境很干净，里面品种多样，每次去都会吃培根，烤五花肉，最爱，水果也很多，特别好吃，价位还可以，人很多"]}},
{"business_id":512839,"lat":40.03609,"lng":116.30764,"avg_rating":2.0,"count":74,"Stars":{"All":74,"5s":3,"4s":29,"3s":32,"2s":6,"1s":4},"Region":"海淀区","BusinessName":"鸿毛饺子(上地三街店)","Address":"上地三街嘉华大厦A座首层(上地环岛西侧)","tel":"010-62971036","BusinessType":"北京餐厅","Region2":"海淀区","SubRegion":"上地","SalesType":"饺子", "comments":{"comments_count":193, "items":["饺子量少，没味道，价格还贵，其他店里20块钱吃到的这得30多块钱，不划算"]}},
{"business_id":2122321,"lat":40.039658,"lng":116.30982,"avg_rating":2.0,"count":133,"Stars":{"All":133,"5s":9,"4s":46,"3s":53,"2s":8,"1s":17},"Region":"海淀区","BusinessName":"嘉和一品粥(上地店)","Address":"上地信息路16号(近超市发超市)","tel":"010-62960292","BusinessType":"北京餐厅","Region2":"海淀区","SubRegion":"上地","SalesType":"粥店", "comments":{"comments_count":308, "items":["#油条# 陪夫人到慈铭体检，在此吃早餐，自助式的，自取了一根油条、小米粥、一碟泡菜，共8元，不贵，吃得很舒服。"]}},
{"business_id":4023439,"lat":40.034157,"lng":116.29011,"avg_rating":2.0,"count":26,"Stars":{"All":26,"5s":3,"4s":0,"3s":8,"2s":6,"1s":9},"Region":"海淀区","BusinessName":"高家烧鸽子","Address":"马连洼北路北(菊园小区对面)","tel":"010-82708321","BusinessType":"北京餐厅","Region2":"海淀区","SubRegion":"上地","SalesType":"烧烤", "comments":{"comments_count":33, "items":["冬天去的。。。守着暖气才行。。。烤串都干巴巴的，很小，一点儿也不香。。。按说烤串儿应该吃的热火朝天才对吧。。。可惜了很大的地方，按说上地这边吃烤串的地方不多，如果好好经营，会吸引很多附近的职员和居民的。。。"]}},
{"business_id":2124046,"lat":40.020706,"lng":116.27681,"avg_rating":2.0,"count":9,"Stars":{"All":9,"5s":0,"4s":3,"3s":3,"2s":3,"1s":0},"Region":"海淀区","BusinessName":"昊天宝粥店(天秀路店)","Address":"肖家河天秀路10号农大国际创业园1楼(近建设大学)","tel":"010-62828083","BusinessType":"北京餐厅","Region2":"海淀区","SubRegion":"上地","SalesType":"粥店", "comments":{"comments_count":30, "items":["我感觉这家店能开到现在都是一种奇迹，上菜慢不说，服务员素质还低，最可气的是菜也不好吃，有一次我看他们家厨师还在抠脚，我扭头就走了！"]}},
{"business_id":2134180,"lat":40.046116,"lng":116.3055,"avg_rating":2.0,"count":7,"Stars":{"All":7,"5s":0,"4s":2,"3s":5,"2s":0,"1s":0},"Region":"海淀区","BusinessName":"正午de盘子(上地店)","Address":"上地信息路2号国际创业园2号院2号楼19E号","tel":"010-82896879","BusinessType":"北京餐厅","Region2":"海淀区","SubRegion":"上地","SalesType":"快餐/简餐", "comments":{"comments_count":94, "items":["味道一般般 中午没饭吃的时候可以来吃吃。还有三十个字……………………………………………………………………"]}},
{"business_id":5058147,"lat":40.03227,"lng":116.31229,"avg_rating":2.0,"count":7,"Stars":{"All":7,"5s":0,"4s":0,"3s":6,"2s":1,"1s":0},"Region":"海淀区","BusinessName":"快乐一族(上地东里店)","Address":"信息路上地东里四区1号楼甲1号(超市发斜对面)","tel":"010-62978030","BusinessType":"北京餐厅","Region2":"海淀区","SubRegion":"上地","SalesType":"快餐/简餐", "comments":{"comments_count":13, "items":["经济实惠，随便吃点填饱肚子。速度快不耽误时间。等车的时间就解决一动饭。"]}},
{"business_id":5459705,"lat":40.037334,"lng":116.30935,"avg_rating":2.0,"count":8,"Stars":{"All":8,"5s":0,"4s":1,"3s":3,"2s":2,"1s":2},"Region":"海淀区","BusinessName":"粥面食府","Address":"上地信息路15号玉景公寓底商(速8酒店北侧)","tel":"010-62969181","BusinessType":"北京餐厅","Region2":"海淀区","SubRegion":"上地","SalesType":"粥店", "comments":{"comments_count":10, "items":["因为比较饿了，看见了第一个拉面我就点了，味道感觉还过得去，有很多汤，这比较符合个人口味。环境有点偏暗，收费的服务员没有表情不说话，感觉谁欠她的似的。20131006"]}},
{"business_id":3466195,"lat":40.033184,"lng":116.311676,"avg_rating":2.0,"count":2,"Stars":{"All":2,"5s":0,"4s":0,"3s":1,"2s":1,"1s":0},"Region":"海淀区","BusinessName":"五常台式便当","Address":"信息路(近上地城铁站)","tel":"18910570357","BusinessType":"北京餐厅","Region2":"海淀区","SubRegion":"上地","SalesType":"快餐/简餐", "comments":{"comments_count":6, "items":["这家便当挺好吃呀 那个 鸡腿饭 好大的一只鸡腿 端上来吓人一跳 炸得酥酥的 味道也不错 还点过一个什么大排饭 也是巨大的一块肉 性价比不错啦~"]}},
{"business_id":3160075,"lat":40.03595,"lng":116.30793,"avg_rating":2.0,"count":3,"Stars":{"All":3,"5s":0,"4s":0,"3s":1,"2s":2,"1s":0},"Region":"海淀区","BusinessName":"全面俱到(上地店)","Address":"上地三街9号嘉华大厦F座1楼(上地环岛西侧)","tel":"010-82790992","BusinessType":"北京餐厅","Region2":"海淀区","SubRegion":"上地","SalesType":"快餐/简餐", "comments":{"comments_count":7, "items":["中午来这儿解决午餐，人不是很多&nbsp;点了一份套餐，有盖饭，凉菜和豆浆&nbsp;味道很一般，就是上菜比较快而已&nbsp;其他的没有什么特别的"]}},
{"business_id":3924886,"lat":40.052727,"lng":116.301605,"avg_rating":2.0,"count":4,"Stars":{"All":4,"5s":0,"4s":0,"3s":3,"2s":1,"1s":0},"Region":"海淀区","BusinessName":"熊猫特快","Address":"上地十街1号辉煌国际地下美食城","tel":"无添加","BusinessType":"北京餐厅","Region2":"海淀区","SubRegion":"上地","SalesType":"快餐/简餐", "comments":{"comments_count":4, "items":["只能说这家店的出品大都是不堪入口的~~~~~于是不太能理解为什么同事们还能吃很多遍。。。貌似就是干锅肥肠还OK~大约也是因为肥肠总是一件不错的物件。。。宫保鸡丁的花生是不脆的，味道近乎成都小吃。辣子鸡丁怪太多面粉，于是不知道吃的是鸡丁还是其他什么~最后吃过啥几乎都忘了~"]}},
{"business_id":2011714,"lat":40.033253,"lng":116.31177,"avg_rating":2.0,"count":18,"Stars":{"All":18,"5s":1,"4s":1,"3s":9,"2s":3,"1s":4},"Region":"海淀区","BusinessName":"禧元堂粥府(上地店)","Address":"上地信息路30号上地大厦1楼","tel":"010-62988210","BusinessType":"北京餐厅","Region2":"海淀区","SubRegion":"上地","SalesType":"粥店", "comments":{"comments_count":62, "items":["很奇葩的一家店，明明是粥馆，我们去的那次居然说什么粥都没有了只有绿豆粥然后服务员各种糊涂，虽然记账的时候少算了我们的钱另外还有一家顾客居然跟服务员吵起来了，总之就是很奇葩的一家店对了，他们家的皮蛋豆腐的皮蛋竟然是鹌鹑蛋"]}},
{"business_id":2987434,"lat":40.042583,"lng":116.31094,"avg_rating":2.0,"count":2,"Stars":{"All":2,"5s":0,"4s":1,"3s":0,"2s":1,"1s":0},"Region":"海淀区","BusinessName":"兰州牛肉拉面","Address":"上地东路城铁北侧","tel":"无添加","BusinessType":"北京餐厅","Region2":"海淀区","SubRegion":"上地","SalesType":"粉面馆", "comments":{"comments_count":5, "items":["上次去看弟弟的时候，弟弟迟到了好久，我正好就再这里看到了兰州拉面，就去里面点了一份牛肉汤，哇，好香！就喜欢这味道。"]}},
{"business_id":8693532,"lat":40.030807,"lng":116.333244,"avg_rating":4.0,"count":22,"Stars":{"All":22,"5s":10,"4s":7,"3s":4,"2s":1,"1s":0},"Region":"海淀区","BusinessName":"三元梅园(五彩城店)","Address":"清河中街68号华润五彩城二期5楼L557a号(近上地地铁站)","tel":"无添加","BusinessType":"北京餐厅","Region2":"海淀区","SubRegion":"清河","SalesType":"老北京小吃", "comments":{"comments_count":31, "items":["在五彩城的东区5层，靠近西侧了，挨着拿渡麻辣香锅，人不是很多，各种奶制品都是放在冰柜里的，夏天吃很爽，冬天吃有点凉呦"]}},
{"business_id":15041365,"lat":40.052185,"lng":116.31324,"avg_rating":0.0,"count":2,"Stars":{"All":2,"5s":0,"4s":1,"3s":0,"2s":1,"1s":0},"Region":"海淀区","BusinessName":"东方饺子王(西二旗店)","Address":"西二旗城铁南侧","tel":"无添加","BusinessType":"北京餐厅","Region2":"海淀区","SubRegion":"上地","SalesType":"饺子", "comments":{"comments_count":5, "items":["刚开业全场菜品半价，我承认我是被骗进去的，因为所有主食都是饺子都不特价，贵的要死。#麻酱拉皮# 这个我最喜欢，22貌似，芝麻酱味道挺足，还有一些肉啊神马的，就是太辣啦。#素三鲜饺子# 13貌似是，超难吃好么，完全没味道好么，一点都不鲜好么，跟吃草的效果没区别。#猪肉白菜饺子# 猪肉白菜几乎木有猪肉，只能看到白菜，坑人也不带这么坑的。价格貌似14。#菌菇三鲜饺子# 完全木有菌菇的鲜美味道，淡而无味味同嚼蜡的感觉。价格忘了，20多，挺贵的。#夫妻肺片# 36块钱，量很小，不过味道还凑合吧。#猪肉茴香煎饺# 18貌似，味道还行，就是油大。#蒜泥茄子# 味道超级诡异，有时候吃着像面包味，有时候像饼干味，最后扔了半碗。饺子汤免费，不过长得像清水。中午吃的话要早去，排位会排很久。"]}},
{"business_id":13788218,"lat":40.036205,"lng":116.31114,"avg_rating":0.0,"count":2,"Stars":{"All":2,"5s":0,"4s":0,"3s":1,"2s":0,"1s":1},"Region":"海淀区","BusinessName":"老秦人(上地店)","Address":"上地三街环岛东中黎科技园1号楼1楼","tel":"无添加","BusinessType":"北京餐厅","Region2":"海淀区","SubRegion":"上地","SalesType":"其他小吃", "comments":{"comments_count":9, "items":["#羊肉泡馍# 这个是吃过的最像陕西原版的了#米皮# 吃着还不错，问题在于配菜居然放的是芹菜 -_- 我不吃这个#肉夹馍# 觉得还是不错的"]}},
{"business_id":14911002,"lat":40.053165,"lng":116.30138,"avg_rating":0.0,"count":6,"Stars":{"All":6,"5s":4,"4s":1,"3s":1,"2s":0,"1s":0},"Region":"海淀区","BusinessName":"勾魂凉皮","Address":"上地十街辉煌国际2楼","tel":"无添加","BusinessType":"北京餐厅","Region2":"海淀区","SubRegion":"上地","SalesType":"其他小吃", "comments":{"comments_count":6, "items":["跟魏家凉皮的味道差不多，装修还是挺年轻化的，肉夹馍有些硬，口感一般。"]}},
{"business_id":9967479,"lat":40.045647,"lng":116.30883,"avg_rating":0.0,"count":1,"Stars":{"All":1,"5s":0,"4s":1,"3s":0,"2s":0,"1s":0},"Region":"海淀区","BusinessName":"黄焖鸡米饭","Address":"上地东路(近群英科技园)","tel":"18311344188","BusinessType":"北京餐厅","Region2":"海淀区","SubRegion":"上地","SalesType":"快餐/简餐", "comments":{"comments_count":4, "items":["第一次吃，还蛮好吃的，鸡肉很多很嫩很入味，把米饭拌到黄焖鸡砂锅里很下饭，也可以拌面条，有点小辣，价钱不贵。"]}},
{"business_id":14880692,"lat":40.030003,"lng":116.31352,"avg_rating":0.0,"count":0,"Stars":{"All":0,"5s":0,"4s":0,"3s":0,"2s":0,"1s":0},"Region":"海淀区","BusinessName":"菠萝山米粉(科贸店)","Address":"中关村科贸大厦物美超市正兴小吃城","tel":"无添加","BusinessType":"北京餐厅","Region2":"海淀区","SubRegion":"上地","SalesType":"其他小吃","comments":{"comments_count":0, "items":[]}},
{"business_id":8931359,"lat":40.02753,"lng":116.311714,"avg_rating":0.0,"count":2,"Stars":{"All":2,"5s":0,"4s":1,"3s":1,"2s":0,"1s":0},"Region":"海淀区","BusinessName":"和你槑玩槑了(上地华联店)","Address":"农大南路1号院1号楼华联商厦B1楼","tel":"无添加","BusinessType":"北京餐厅","Region2":"海淀区","SubRegion":"上地","SalesType":"零食", "comments":{"comments_count":2, "items":["还可以吧，地方比较小，干干净净的，买了一点话梅，平时吃着玩儿。这东西不能常吃，偶尔吃吃可以的"]}},
{"business_id":9627008,"lat":40.04242,"lng":116.29774,"avg_rating":0.0,"count":1,"Stars":{"All":1,"5s":0,"4s":0,"3s":0,"2s":0,"1s":1},"Region":"海淀区","BusinessName":"阿泰包子(西二旗店)","Address":"东北旺南路26号(近麦田房产)","tel":"010-59793180","BusinessType":"北京餐厅","Region2":"海淀区","SubRegion":"上地","SalesType":"包子", "comments":{"comments_count":1, "items":["只能说吃上饭真心不容易，等啊等啊等啊等，最后饭也没上来，服务员阿姨什么也不管，问什么就不知道，来这吃饭的人需要很大很大的勇气。"]}},
{"business_id":14724999,"lat":40.05315,"lng":116.3013,"avg_rating":0.0,"count":1,"Stars":{"All":1,"5s":0,"4s":1,"3s":0,"2s":0,"1s":0},"Region":"海淀区","BusinessName":"食分钟(辉煌国际地下店)","Address":"上地十街1号辉煌国际B1楼(近百万庄园地下)","tel":"无添加","BusinessType":"北京餐厅","Region2":"海淀区","SubRegion":"上地","SalesType":"快餐/简餐", "comments":{"comments_count":2, "items":["中午人多啊！菜还不错，只是店员跟赶猪似的，把人往前推，性价比还算可以，午餐嘛。"]}},
{"business_id":15109641,"lat":40.052185,"lng":116.31324,"avg_rating":0.0,"count":0,"Stars":{"All":0,"5s":0,"4s":0,"3s":0,"2s":0,"1s":0},"Region":"海淀区","BusinessName":"川东道","Address":"西二旗城铁南侧","tel":"无添加","BusinessType":"北京餐厅","Region2":"海淀区","SubRegion":"上地","SalesType":"小吃快餐","comments":{"comments_count":0, "items":[]}},
{"business_id":3555637,"lat":40.052727,"lng":116.301605,"avg_rating":0.0,"count":2,"Stars":{"All":2,"5s":0,"4s":0,"3s":2,"2s":0,"1s":0},"Region":"海淀区","BusinessName":"湘味湖南米粉","Address":"上地十街6号楼辉煌国际东区美食城后街(西二旗城铁对面)","tel":"010-82176252","BusinessType":"北京餐厅","Region2":"海淀区","SubRegion":"上地","SalesType":"粉面馆", "comments":{"comments_count":14, "items":["在地下，中午随意吃吃的，米粉做的不是很地道，口味一般，他家的套餐比米粉好吃些，可是也都一般，环境就那样吧，服务也是的，总体来说也就是一般的一家店。"]}},
{"business_id":5546310,"lat":40.02753,"lng":116.311714,"avg_rating":0.0,"count":2,"Stars":{"All":2,"5s":0,"4s":2,"3s":0,"2s":0,"1s":0},"Region":"海淀区","BusinessName":"吉祥馄饨(上地华联店)","Address":"农大南路1号院1号楼华联商厦B1楼","tel":"15711092003","BusinessType":"北京餐厅","Region2":"海淀区","SubRegion":"上地","SalesType":"快餐/简餐", "comments":{"comments_count":2, "items":["这家不是独立店，美食城大排挡那种，环境那就不用说了，一到中午就会被周遍的白领们塞的满满的。口味嘛，胜在种类多，可以换着样的吃，不过我最爱的莲藕陷的没有了，可能是点的人不多被砍掉了。"]}},
{"business_id":6054928,"lat":40.09941,"lng":116.19358,"avg_rating":0.0,"count":1,"Stars":{"All":1,"5s":0,"4s":1,"3s":0,"2s":0,"1s":0},"Region":"海淀区","BusinessName":"老韩BBQ自助烧烤","Address":"上庄水库南岸向西1公里","tel":"010-58405113","BusinessType":"北京餐厅","Region2":"海淀区","SubRegion":"上地","SalesType":"烧烤", "comments":{"comments_count":1, "items":["还不错的BBQ吧，品类还是挺多的。我比较喜欢吃烤五花肉。虽然确实有点点油腻。"]}},
{"business_id":5716854,"lat":40.026974,"lng":116.2932,"avg_rating":0.0,"count":1,"Stars":{"All":1,"5s":0,"4s":1,"3s":0,"2s":0,"1s":0},"Region":"海淀区","BusinessName":"宽街烤翅","Address":"树村万树园小区对面","tel":"无添加","BusinessType":"北京餐厅","Region2":"海淀区","SubRegion":"上地","SalesType":"烧烤", "comments":{"comments_count":4, "items":["一般&nbsp;有些东西不纯 凑合吃也就 环境一般 勉强吃个夜宵就是"]}},
{"business_id":6213451,"lat":40.052727,"lng":116.301605,"avg_rating":0.0,"count":3,"Stars":{"All":3,"5s":0,"4s":1,"3s":1,"2s":1,"1s":0},"Region":"海淀区","BusinessName":"一品排骨饭","Address":"上地十街1号辉煌国际大厦东6号楼B1楼(近百度大厦)","tel":"无添加","BusinessType":"北京餐厅","Region2":"海淀区","SubRegion":"上地","SalesType":"快餐/简餐", "comments":{"comments_count":3, "items":["公司来这边不远，偶尔就来这家吃3-4块大排骨，实际大多是接近脊骨的位置，脊骨刺骨的效果，带的肉足，量够点配莲藕或山药的次数更多，实际对于我来说有点淡，但肉够软烂，汤更好喝；（对我口味讲，红烧的肉咸淡正好，但肉有点干，汤稍咸）各种搭配的汤都很好喝，（不过好像没有之前浓）。平时普通来吃个，还不错"]}},
{"business_id":13713940,"lat":40.04205,"lng":116.29577,"avg_rating":0.0,"count":1,"Stars":{"All":1,"5s":1,"4s":0,"3s":0,"2s":0,"1s":0},"Region":"海淀区","BusinessName":"第1佳大鸡排","Address":"东北旺南路(对面)(近东池便当)","tel":"无添加","BusinessType":"北京餐厅","Region2":"海淀区","SubRegion":"上地","SalesType":"零食", "comments":{"comments_count":2, "items":["虽然常能看到第一佳大鸡排，但是真正吃过的却只有这家第一次吃了盐酥鸡，好味！然后就第二天拉着天天跑去吃爆浆鸡排之前在西单吃过的爆浆鸡排里面的芝士都是没味道的，也没爆浆他家的真的是爆浆鸡排啊但是制作的功夫也很长，我们等了好久才吃到超级热，里面要开芝士也不少，热热的味道很好服务肯定是差一点了，第一次去买盐酥鸡，好久都不理我，我递钱上去也只顾着聊天不理我但是好吃就好了，以前的阿牛与仙草换成了这个还是有些小遗憾。"]}},
{"business_id":13668796,"lat":40.03297,"lng":116.31973,"avg_rating":0.0,"count":1,"Stars":{"All":1,"5s":0,"4s":1,"3s":0,"2s":0,"1s":0},"Region":"海淀区","BusinessName":"滋美卤肉卷(滋美卤肉卷西二旗店)","Address":"西二旗13号线地铁站B口出","tel":"010-58673007","BusinessType":"北京餐厅","Region2":"海淀区","SubRegion":"上地","SalesType":"其他小吃", "comments":{"comments_count":1, "items":["地铁口新开不久的店面，上下班时间生意比较好，肚子饿的时候吃一个卷，鸡肉卷比较好吃，7元钱一个，是比较软和嫩的肉料，还有几种酱汁，味道还不错。早晚人比较多吃的"]}},
{"business_id":14874930,"lat":39.9527,"lng":116.515434,"avg_rating":0.0,"count":0,"Stars":{"All":0,"5s":0,"4s":0,"3s":0,"2s":0,"1s":0},"Region":"朝阳区","BusinessName":"黄焖鸡米饭","Address":"上地西路6街(近百度)","tel":"13552228113","BusinessType":"北京餐厅","Region2":"朝阳区","SubRegion":"上地","SalesType":"快餐/简餐","comments":{"comments_count":0, "items":[]}},
{"business_id":4528015,"lat":40.052303,"lng":116.30656,"avg_rating":0.0,"count":0,"Stars":{"All":0,"5s":0,"4s":0,"3s":0,"2s":0,"1s":0},"Region":"海淀区","BusinessName":"速客快餐外卖","Address":"西二旗","tel":"15116986381","BusinessType":"北京餐厅","Region2":"海淀区","SubRegion":"上地","SalesType":"快餐/简餐","comments":{"comments_count":0, "items":[]}},
{"business_id":5626750,"lat":40.05438,"lng":116.30322,"avg_rating":0.0,"count":2,"Stars":{"All":2,"5s":0,"4s":1,"3s":1,"2s":0,"1s":0},"Region":"海淀区","BusinessName":"花溪牛肉粉","Address":"上地东路1号院(华控大厦对面)","tel":"无添加","BusinessType":"北京餐厅","Region2":"海淀区","SubRegion":"上地","SalesType":"粉面馆", "comments":{"comments_count":6, "items":["就吃了一碗牛肉粉就评价有点不太好，食感平平淡口的～牛肉还算香，重口的就不用去了"]}},
{"business_id":5862041,"lat":40.03262,"lng":116.27533,"avg_rating":0.0,"count":2,"Stars":{"All":2,"5s":0,"4s":2,"3s":0,"2s":0,"1s":0},"Region":"海淀区","BusinessName":"三晋面食府","Address":"马连洼北路8-3号(近树村路)","tel":"无添加","BusinessType":"北京餐厅","Region2":"海淀区","SubRegion":"上地","SalesType":"粉面馆", "comments":{"comments_count":7, "items":["臊子面不错，量大味道浓。西红柿打卤好像放了高汤，还是原味的清爽。茄子卤里的茄子块儿太大了！揪片和刀削面还行。大同炖豆腐和老醋花生也还可以。"]}},
{"business_id":14874545,"lat":39.9527,"lng":116.515434,"avg_rating":0.0,"count":1,"Stars":{"All":1,"5s":1,"4s":0,"3s":0,"2s":0,"1s":0},"Region":"朝阳区","BusinessName":"黄焖鸡米饭","Address":"上地6街西路","tel":"13552228113","BusinessType":"北京餐厅","Region2":"朝阳区","SubRegion":"上地","SalesType":"小吃快餐", "comments":{"comments_count":1, "items":["这是我吃过的最好吃的菜，鸡肉口感很好，特别的好吃，很多家只有这家最好吃"]}},
{"business_id":2740702,"lat":40.037334,"lng":116.307846,"avg_rating":0.0,"count":1,"Stars":{"All":1,"5s":0,"4s":1,"3s":0,"2s":0,"1s":0},"Region":"海淀区","BusinessName":"独门烧烤","Address":"上地三街9号嘉华大厦E座108号(上地环岛西侧)","tel":"010-62979552","BusinessType":"北京餐厅","Region2":"海淀区","SubRegion":"上地","SalesType":"烧烤", "comments":{"comments_count":2, "items":["这个去的比较少，同事评价说味道不怎么样，我吃着还可以。相对于周边的店来说，这里的生意不是那么火。可能是店的位置的缘故吧。"]}},
{"business_id":3117847,"lat":40.033134,"lng":116.31976,"avg_rating":0.0,"count":1,"Stars":{"All":1,"5s":0,"4s":0,"3s":1,"2s":0,"1s":0},"Region":"海淀区","BusinessName":"烤翅一绝","Address":"上地地铁站北100米(蒸蒸日上旁)","tel":"无添加","BusinessType":"北京餐厅","Region2":"海淀区","SubRegion":"上地","SalesType":"烧烤", "comments":{"comments_count":1, "items":["没觉得有什么特别的，很一般的小店，除了烤翅还卖串和凉皮什么的，味道也是没什么特别的，烤翅还凑合吧，不过和现在流行的各种秘制烤翅比，味道稍微差了那么一点"]}},
{"business_id":3176356,"lat":40.04076,"lng":116.30818,"avg_rating":0.0,"count":5,"Stars":{"All":5,"5s":0,"4s":0,"3s":0,"2s":0,"1s":5},"Region":"海淀区","BusinessName":"阳光快餐","Address":"上地五街(近方正大厦)","tel":"010-62985040","BusinessType":"北京餐厅","Region2":"海淀区","SubRegion":"上地","SalesType":"快餐/简餐", "comments":{"comments_count":6, "items":["搞你妹啊 早上点的东西 中午都没送到 你们谈恋爱呢吗?&nbsp;囧 囧 囧 囧 囧 囧 囧 囧 囧 囧 囧 囧 囧 囧 囧 囧 囧 囧 囧 囧 囧 囧 囧 囧 囧 囧 囧 囧 囧"]}},
{"business_id":3929980,"lat":40.040634,"lng":116.33179,"avg_rating":0.0,"count":2,"Stars":{"All":2,"5s":0,"4s":0,"3s":2,"2s":0,"1s":0},"Region":"海淀区","BusinessName":"比比吃","Address":"安宁庄前街(郭林烤鸭对面)","tel":"无添加","BusinessType":"北京餐厅","Region2":"海淀区","SubRegion":"上地","SalesType":"烧烤", "comments":{"comments_count":3, "items":["跟朋友吃饭不知道吃什么，路过这里，味道一般，店里卫生不是很好，有烤串。"]}},
{"business_id":4288695,"lat":40.033768,"lng":116.28617,"avg_rating":0.0,"count":0,"Stars":{"All":0,"5s":0,"4s":0,"3s":0,"2s":0,"1s":0},"Region":"海淀区","BusinessName":"仁和饺子馆","Address":"马连洼北路","tel":"无添加","BusinessType":"北京餐厅","Region2":"海淀区","SubRegion":"上地","SalesType":"饺子","comments":{"comments_count":0, "items":[]}},
{"business_id":4292490,"lat":40.042583,"lng":116.31094,"avg_rating":0.0,"count":2,"Stars":{"All":2,"5s":0,"4s":1,"3s":1,"2s":0,"1s":0},"Region":"海淀区","BusinessName":"尚食汇","Address":"上地东路联华超市对面(近上地地铁站)","tel":"010-57211701","BusinessType":"北京餐厅","Region2":"海淀区","SubRegion":"上地","SalesType":"快餐/简餐", "comments":{"comments_count":10, "items":["西三环花园桥那个，。我们公司就在旁边，是老客户了，味道还是凑活，但是那个类似大堂经理的人，就是一***你们知道么？“你们要是吃面就坐外面！”“盖饭有，不能在店里吃，那是送外面的。”“你们怎么还没走啊？”我真想上去抽他。对客人吹鼻子瞪眼睛，经常听见他骂服务员，各种脏话狂飙。非常伪善，对着你笑背地里就骂你，什么玩意啊？有时候叫了十分钟服务员都没人理我们。点菜的时候也一脸不耐烦。上次我们说有回民忌口，上来的菜赤裸裸的躺着猪肉，***，叫经理来，丫就装孙子说不在。每次还没吃，先被这2B气个半饱。祝你早日倒闭！"]}},
{"business_id":4514514,"lat":40.052727,"lng":116.301605,"avg_rating":0.0,"count":2,"Stars":{"All":2,"5s":0,"4s":1,"3s":1,"2s":0,"1s":0},"Region":"海淀区","BusinessName":"面天下","Address":"上地十街1号辉煌国际大厦附近","tel":"无添加","BusinessType":"北京餐厅","Region2":"海淀区","SubRegion":"上地","SalesType":"粉面馆", "comments":{"comments_count":15, "items":["原本很喜欢面天下 ，但是现在换了老板，面条很咸啊而且价格死贵已经很久没去吃了，明天再去吃一次试试味道"]}},
{"business_id":4530422,"lat":39.95971,"lng":116.29801,"avg_rating":0.0,"count":2,"Stars":{"All":2,"5s":0,"4s":2,"3s":0,"2s":0,"1s":0},"Region":"海淀区","BusinessName":"周黑鸭","Address":"西二旗地铁站","tel":"无添加","BusinessType":"北京餐厅","Region2":"海淀区","SubRegion":"上地","SalesType":"熟食", "comments":{"comments_count":2, "items":["别的鸭脖子我是不吃的就吃周黑鸭的好像添加剂比较少，反正味道没那么假这家店每天生意都超级好因为我每天都是下班的时候看到一群人在排队味道不粗哦"]}},
{"business_id":5337358,"lat":40.05295,"lng":116.30534,"avg_rating":0.0,"count":1,"Stars":{"All":1,"5s":0,"4s":1,"3s":0,"2s":0,"1s":0},"Region":"海淀区","BusinessName":"月亮饼","Address":"西二旗地铁口附近","tel":"无添加","BusinessType":"北京餐厅","Region2":"海淀区","SubRegion":"上地","SalesType":"其他小吃", "comments":{"comments_count":1, "items":["西二旗地铁门口的小吃摊非常非常多，这家在桥头。所谓月亮饼，月亮就是鸡蛋黄，饼就是饼，然后切成一个弯弯的月亮的形状。吃起来的味道和鸡蛋灌饼差不多吧。"]}},
{"business_id":5378041,"lat":40.02024,"lng":116.31401,"avg_rating":0.0,"count":3,"Stars":{"All":3,"5s":2,"4s":0,"3s":0,"2s":1,"1s":0},"Region":"海淀区","BusinessName":"香驴阁驴肉火烧","Address":"信息路57号(北京体育大学西门附近)","tel":"无添加","BusinessType":"北京餐厅","Region2":"海淀区","SubRegion":"上地","SalesType":"其他小吃", "comments":{"comments_count":3, "items":["驴肉火烧神马的最有爱啦，好吃不贵，欢迎体验。就是不知道卫生不卫生，汗"]}},
{"business_id":5388258,"lat":40.05295,"lng":116.30534,"avg_rating":0.0,"count":1,"Stars":{"All":1,"5s":0,"4s":0,"3s":1,"2s":0,"1s":0},"Region":"海淀区","BusinessName":"板面","Address":"西二旗城铁站附近","tel":"无添加","BusinessType":"北京餐厅","Region2":"海淀区","SubRegion":"上地","SalesType":"粉面馆", "comments":{"comments_count":3, "items":["小碗的就5米~价格便宜~内容自然就不能多要求~几块牛肉倒也还算可以~只是喜欢板面的宽度~很爱宽面的人类自然抵抗不住板面的诱惑啦~里面小油菜一些些~香菜一些些~味道不够不怕~自己加了醋和辣椒就都能西里呼噜吃下去啦~"]}},
{"business_id":5364823,"lat":40.0518,"lng":116.298325,"avg_rating":0.0,"count":1,"Stars":{"All":1,"5s":1,"4s":0,"3s":0,"2s":0,"1s":0},"Region":"海淀区","BusinessName":"河间阎记驴肉火烧","Address":"上地十街(联想大厦西侧)","tel":"13261097518","BusinessType":"北京餐厅","Region2":"海淀区","SubRegion":"上地","SalesType":"其他小吃", "comments":{"comments_count":1, "items":["饼酥脆，很热乎，也会给提供蒜汁。味道非常好。板肠不腥，驴肉汤也不错，反正是我在上地地区吃？过的最好吃的驴火～"]}},
{"business_id":5566702,"lat":40.04587,"lng":116.30911,"avg_rating":0.0,"count":0,"Stars":{"All":0,"5s":0,"4s":0,"3s":0,"2s":0,"1s":0},"Region":"海淀区","BusinessName":"李氏刀削面","Address":"上地东路","tel":"无添加","BusinessType":"北京餐厅","Region2":"海淀区","SubRegion":"上地","SalesType":"粉面馆","comments":{"comments_count":0, "items":[]}},
{"business_id":5652787,"lat":40.025993,"lng":116.29492,"avg_rating":0.0,"count":2,"Stars":{"All":2,"5s":0,"4s":2,"3s":0,"2s":0,"1s":0},"Region":"海淀区","BusinessName":"稻香村(农大南路店)","Address":"农大南路博雅西园1号楼底商(近厢黄旗路)","tel":"无添加","BusinessType":"北京餐厅","Region2":"海淀区","SubRegion":"上地","SalesType":"老北京小吃", "comments":{"comments_count":4, "items":["环境干净卫生，服务主动，熟食买后可以帮忙切成薄片。还有，散装的酱料，还有散装的糖桂花，玫瑰酱。主食大馒头也是很好吃的。"]}},
{"business_id":5612638,"lat":40.03758,"lng":116.308266,"avg_rating":0.0,"count":1,"Stars":{"All":1,"5s":1,"4s":0,"3s":0,"2s":0,"1s":0},"Region":"海淀区","BusinessName":"顶香阁桂林米粉(上地店)","Address":"上地三街9号嘉华大厦F座102号","tel":"010-62982483","BusinessType":"北京餐厅","Region2":"海淀区","SubRegion":"上地","SalesType":"快餐/简餐", "comments":{"comments_count":2, "items":["非常愤怒！中午11:10定的两份酸辣笋尖粉12:45才到。该店离我单位只有一站地，坐车只有2分钟不到的时间。问题是粉好吃我就忍了，还那么难吃！！整碗都扔了吃的饼干！！气死了！！！！"]}},
{"business_id":5989934,"lat":40.02134,"lng":116.28168,"avg_rating":0.0,"count":1,"Stars":{"All":1,"5s":1,"4s":0,"3s":0,"2s":0,"1s":0},"Region":"海淀区","BusinessName":"桂林米粉","Address":"天秀路(近圆明园西路)","tel":"010-52423958","BusinessType":"北京餐厅","Region2":"海淀区","SubRegion":"上地","SalesType":"粉面馆", "comments":{"comments_count":4, "items":["味道非常好吃,干净的小店,服务态度也很好！消费也很便宜，必须值得一试，外卖还可以送到家门口！52423958外卖电话"]}},
{"business_id":6259381,"lat":40.037228,"lng":116.30972,"avg_rating":0.0,"count":1,"Stars":{"All":1,"5s":0,"4s":1,"3s":0,"2s":0,"1s":0},"Region":"海淀区","BusinessName":"哈哈镜鸭脖子(印象南国上地店)","Address":"信息路15号玉景公寓底商(速8酒店北侧)","tel":"010-82782728","BusinessType":"北京餐厅","Region2":"海淀区","SubRegion":"上地","SalesType":"熟食", "comments":{"comments_count":1, "items":["这里其实是个小卖部，代理哈哈镜，有个哈哈镜专门配备的冰柜摆在屋里，据老板说食物都是每天总厂送来的，皮皮虾和牛蛙得提前一天预订，别的都有现货，和同事在这买了鸭肝，牛蛙，皮皮虾，藕，土豆，跟其他分店的味道一样的，而且老板还能给我们送到公司楼下，很开心~"]}},
{"business_id":6423010,"lat":40.037437,"lng":116.31473,"avg_rating":0.0,"count":1,"Stars":{"All":1,"5s":0,"4s":1,"3s":0,"2s":0,"1s":0},"Region":"海淀区","BusinessName":"朵颐舍主题餐厅","Address":"上地东路(近上地七街)","tel":"010-56429826","BusinessType":"北京餐厅","Region2":"海淀区","SubRegion":"上地","SalesType":"快餐/简餐", "comments":{"comments_count":1, "items":["新开的小店，挺有特色的，味道环境都不错，价格很便宜，适合几个人一起坐坐。尤其适合情侣吃吃喝喝。主要经营麻辣烫，还有一些简单的盖饭，味道也很不错。还经常推出一些活动。"]}},
{"business_id":8241716,"lat":40.03319,"lng":116.31939,"avg_rating":0.0,"count":1,"Stars":{"All":1,"5s":0,"4s":0,"3s":1,"2s":0,"1s":0},"Region":"海淀区","BusinessName":"湘啦辣","Address":"上地东路(上地桥西)","tel":"010-56421559","BusinessType":"北京餐厅","Region2":"海淀区","SubRegion":"上地","SalesType":"其他小吃", "comments":{"comments_count":1, "items":["上地城铁北侧这边一排吃饭的小店这家还算店面比较大的中午一般过来吃个盖饭什么的人气还是比较旺的价格比别家小贵一点"]}},
{"business_id":8291636,"lat":40.015842,"lng":116.286224,"avg_rating":0.0,"count":1,"Stars":{"All":1,"5s":0,"4s":0,"3s":0,"2s":0,"1s":1},"Region":"海淀区","BusinessName":"望源聚铁板烧","Address":"圆明园西路(中关村第1小学对面)","tel":"010-52426967","BusinessType":"北京餐厅","Region2":"海淀区","SubRegion":"上地","SalesType":"烧烤", "comments":{"comments_count":3, "items":["菜品比较少，也不是很新鲜，烤虾上来的时候虾头都掉了，一看就是时间比较长的，饮料就那么几样，冬天冷的要命，价格可一点都不便宜"]}},
{"business_id":8970303,"lat":40.04533,"lng":116.30374,"avg_rating":0.0,"count":2,"Stars":{"All":2,"5s":0,"4s":0,"3s":1,"2s":0,"1s":1},"Region":"海淀区","BusinessName":"品渡今天","Address":"上地七街国际创业园A座(上地七街环岛西)","tel":"010-56802231","BusinessType":"北京餐厅","Region2":"海淀区","SubRegion":"上地","SalesType":"快餐/简餐", "comments":{"comments_count":16, "items":["四点多来这里基本没有人，环境什么的还不错，菜价偏贵，但味道还可以……最烦人的是居然有苍蝇，四五只围着我这一桌……好感瞬间下降了三颗星"]}},
{"business_id":8948528,"lat":40.0329,"lng":116.31929,"avg_rating":0.0,"count":5,"Stars":{"All":5,"5s":1,"4s":2,"3s":1,"2s":1,"1s":0},"Region":"海淀区","BusinessName":"第1佳大鸡排(上地店)","Address":"上地东二路(味多美旁)","tel":"13011177112","BusinessType":"北京餐厅","Region2":"海淀区","SubRegion":"上地","SalesType":"其他小吃", "comments":{"comments_count":5, "items":["親自過去吃過一次，老闆態度不錯，東西好吃，當時也問了能外送後面打過幾次電話說外送，接電話的永遠都說送不了~路不熟~什麼的...貴店在上地東二路，說不知道上地五街，不知道上地六街，不知道聯想，不知道金泰富地....你直接說沒有外送就好，一堆理由做什麼"]}},
{"business_id":8956139,"lat":40.04298,"lng":116.30276,"avg_rating":0.0,"count":0,"Stars":{"All":0,"5s":0,"4s":0,"3s":0,"2s":0,"1s":0},"Region":"海淀区","BusinessName":"老香公","Address":"上地西路(近上地六街)","tel":"无添加","BusinessType":"北京餐厅","Region2":"海淀区","SubRegion":"上地","SalesType":"快餐/简餐","comments":{"comments_count":0, "items":[]}},
{"business_id":10350072,"lat":40.03817,"lng":116.30117,"avg_rating":0.0,"count":1,"Stars":{"All":1,"5s":0,"4s":1,"3s":0,"2s":0,"1s":0},"Region":"海淀区","BusinessName":"牛肉丸子面","Address":"上地西路宝硕超市胡同(近金隅嘉华大厦)","tel":"18911081001","BusinessType":"北京餐厅","Region2":"海淀区","SubRegion":"上地","SalesType":"快餐/简餐", "comments":{"comments_count":5, "items":["味道肯定没有本土正宗，不过解馋是够了。大众给的导航地点有误，开车的朋友要注意"]}},
{"business_id":13773912,"lat":40.04182,"lng":116.29676,"avg_rating":0.0,"count":0,"Stars":{"All":0,"5s":0,"4s":0,"3s":0,"2s":0,"1s":0},"Region":"海淀区","BusinessName":"爱吾范","Address":"www.aibanfan.com","tel":"15300116651","BusinessType":"北京餐厅","Region2":"海淀区","SubRegion":"上地","SalesType":"快餐/简餐","comments":{"comments_count":0, "items":[]}},
{"business_id":14172337,"lat":40.05216,"lng":116.31316,"avg_rating":0.0,"count":1,"Stars":{"All":1,"5s":1,"4s":0,"3s":0,"2s":0,"1s":0},"Region":"海淀区","BusinessName":"沙县小吃","Address":"西二旗","tel":"010-56895623","BusinessType":"北京餐厅","Region2":"海淀区","SubRegion":"上地","SalesType":"小吃快餐", "comments":{"comments_count":1, "items":["在这吃过几次，这家的汤都做得很好，所以很喜欢吃汤面（但是面条不是我喜欢的类型）。吃过一次炒河粉也觉得挺好吃的。这家的大排饭很实惠，14块钱，除了大排，还有豆腐干，蔬菜等等不少东西。其他的饭好像也是这样的，还没有吃。我老公说它家的鸭腿和卤蛋味道有点淡，我觉得可能岭南人就是喜欢淡点的味道吧。再说吃盐多对身体也不好。"]}},
{"business_id":14897516,"lat":40.02173,"lng":116.30998,"avg_rating":0.0,"count":1,"Stars":{"All":1,"5s":1,"4s":0,"3s":0,"2s":0,"1s":0},"Region":"海淀区","BusinessName":"坛焖肉二米饭","Address":"农大南路正白旗路(近正白旗超市发超市)","tel":"010-82696609","BusinessType":"北京餐厅","Region2":"海淀区","SubRegion":"上地","SalesType":"快餐/简餐", "comments":{"comments_count":2, "items":["去了新开的店里吃了下肉，味道很不错哦&nbsp;五花肉吃这很香(ˇˍˇ）&nbsp;而且也不腻，店家还送山楂烫&nbsp; 灌灌很有特色 最主要的是味道好吃，下次再来"]}},
{"business_id":516108,"lat":40.020252,"lng":116.31407,"avg_rating":0.0,"count":1,"Stars":{"All":1,"5s":0,"4s":0,"3s":1,"2s":0,"1s":0},"Region":"海淀区","BusinessName":"河间驴肉王","Address":"上地信息路51号(近农大南路)","tel":"无添加","BusinessType":"北京餐厅","Region2":"海淀区","SubRegion":"五道口","SalesType":"其他小吃", "comments":{"comments_count":7, "items":["驴肉火烧是最赞的了，真心的是好吃又不贵，几个火烧顺便喝完汤也就填饱肚子啦"]}},
{"business_id":3324883,"lat":40.052727,"lng":116.301605,"avg_rating":0.0,"count":1,"Stars":{"All":1,"5s":0,"4s":0,"3s":0,"2s":1,"1s":0},"Region":"海淀区","BusinessName":"伊家风情清真快餐","Address":"上地十街1号辉煌国际6号楼地下美食街(近西二旗城铁站)","tel":"010-82176364","BusinessType":"北京餐厅","Region2":"海淀区","SubRegion":"上地","SalesType":"快餐/简餐", "comments":{"comments_count":6, "items":["辉煌地下，拉面味道一般，感觉面碗大而面量挺小的。拉条子感觉一般，不好吃。碎肉拌面味道倒是还可以，同样的问题面量挺小的。购满10元可以免费喝盗版小玻璃瓶的可口可乐和芬达。"]}},
{"business_id":3132676,"lat":40.023575,"lng":116.266754,"avg_rating":0.0,"count":1,"Stars":{"All":1,"5s":1,"4s":0,"3s":0,"2s":0,"1s":0},"Region":"海淀区","BusinessName":"疯狂烤翅(马连洼店)","Address":"马连洼西路(近菊园东站)","tel":"无添加","BusinessType":"北京餐厅","Region2":"海淀区","SubRegion":"上地","SalesType":"烧烤", "comments":{"comments_count":5, "items":["店的位置还算好找，烤翅不错，各种口味都有，经常去吃，每次都点上几种，呵呵！"]}},
{"business_id":2701828,"lat":40.032608,"lng":116.31672,"avg_rating":0.0,"count":0,"Stars":{"All":0,"5s":0,"4s":0,"3s":0,"2s":0,"1s":0},"Region":"海淀区","BusinessName":"烤烤乐特色烤羊腿","Address":"上地树村(武警十七支队东侧)","tel":"010-82890695","BusinessType":"北京餐厅","Region2":"海淀区","SubRegion":"上地","SalesType":"烧烤","comments":{"comments_count":0, "items":[]}},
{"business_id":3104215,"lat":40.052498,"lng":116.29779,"avg_rating":0.0,"count":0,"Stars":{"All":0,"5s":0,"4s":0,"3s":0,"2s":0,"1s":0},"Region":"海淀区","BusinessName":"奇奇快餐","Address":"上地中关村软件园北(近联想北研)","tel":"010-82826930","BusinessType":"北京餐厅","Region2":"海淀区","SubRegion":"上地","SalesType":"快餐/简餐", "comments":{"comments_count":2, "items":["呵呵！谢谢楼上的肯定，我们店因搬迁电话早就改了，现在的定餐电话是82825395&nbsp;62973189 网址是：www.qiqifood。com&nbsp;欢迎大家定餐哈！有任何问题也可以咨询QQ 1046755615"]}},
{"business_id":4191270,"lat":40.042583,"lng":116.31094,"avg_rating":0.0,"count":1,"Stars":{"All":1,"5s":0,"4s":1,"3s":0,"2s":0,"1s":0},"Region":"海淀区","BusinessName":"桂林砂锅饭","Address":"上地东路","tel":"无添加","BusinessType":"北京餐厅","Region2":"海淀区","SubRegion":"上地","SalesType":"快餐/简餐", "comments":{"comments_count":1, "items":["以前每天中午都去吃啊，砂锅饭很多的，最常吃的就是土豆系列的，8块钱的地三鲜也不错啊，不过还是最喜欢土豆鸡块，90%去都是点这个。后来换厨师了，做的就不一样了，饭还是在砂锅里，菜盘还是那个菜盘，可惜里面的味道不一样了，虽然也还不错，不过还是怀念之前的厨师做的味道。"]}},
{"business_id":4100418,"lat":40.05104,"lng":116.26802,"avg_rating":0.0,"count":1,"Stars":{"All":1,"5s":1,"4s":0,"3s":0,"2s":0,"1s":0},"Region":"海淀区","BusinessName":"疯狂烤翅","Address":"德政路5号(近西北旺春晖园)","tel":"无添加","BusinessType":"北京餐厅","Region2":"海淀区","SubRegion":"上地","SalesType":"烧烤", "comments":{"comments_count":3, "items":["什么都不说了，吃完回家拉肚子。进医院，细菌感染。小饭店真的，肠胃不好的人就是要碰运气，今天给你弄干净了，就不拉肚子，没弄干净，半夜痛的死去活来。拉的不停"]}},
{"business_id":4216066,"lat":40.052498,"lng":116.29779,"avg_rating":0.0,"count":2,"Stars":{"All":2,"5s":0,"4s":1,"3s":1,"2s":0,"1s":0},"Region":"海淀区","BusinessName":"美食佳缘快餐外送","Address":"上地中关村软件园(近联想北研)","tel":"010-82771215","BusinessType":"北京餐厅","Region2":"海淀区","SubRegion":"上地","SalesType":"快餐/简餐", "comments":{"comments_count":3, "items":["中午外卖总叫这家，虽说有同事说看门店黑乎乎的小脏作坊，不过味道是不错的。个人喜欢他们的四季豆，炸鸡腿，鸡柳之类的。一般懒得选菜的时候就要个15元套餐或者12元套餐，让他们surprize me。"]}},
{"business_id":4528642,"lat":40.042583,"lng":116.31094,"avg_rating":0.0,"count":2,"Stars":{"All":2,"5s":0,"4s":0,"3s":2,"2s":0,"1s":0},"Region":"海淀区","BusinessName":"烩面汇","Address":"上地东路辉国际东区B1楼(近13号地铁西二旗站)","tel":"13910843287","BusinessType":"北京餐厅","Region2":"海淀区","SubRegion":"上地","SalesType":"粉面馆", "comments":{"comments_count":4, "items":["口味比较淡，面的汤料比较少，中午的工作餐，有河南的同事比较喜欢，等位比较久，环境一般，好在面的口感不错，韧性也还好"]}},
{"business_id":4697597,"lat":40.042583,"lng":116.31094,"avg_rating":0.0,"count":0,"Stars":{"All":0,"5s":0,"4s":0,"3s":0,"2s":0,"1s":0},"Region":"海淀区","BusinessName":"小馋嘴花溪牛肉粉","Address":"上地东路鲁能大厦对面","tel":"010-80623536","BusinessType":"北京餐厅","Region2":"海淀区","SubRegion":"上地","SalesType":"粉面馆","comments":{"comments_count":0, "items":[]}},
{"business_id":4673889,"lat":40.029106,"lng":116.31321,"avg_rating":0.0,"count":5,"Stars":{"All":5,"5s":2,"4s":1,"3s":2,"2s":0,"1s":0},"Region":"海淀区","BusinessName":"实诚盖饭","Address":"上地信息路(近科实大厦)","tel":"无添加","BusinessType":"北京餐厅","Region2":"海淀区","SubRegion":"上地","SalesType":"快餐/简餐", "comments":{"comments_count":5, "items":["对这家快餐厅情有独钟，特别的实惠！就是豆浆不怎么好，跟水一样的味道，狠甜，不过价格狠好，只要1元钱一杯。总之狠满意！"]}},
{"business_id":5210167,"lat":40.052845,"lng":116.3023,"avg_rating":0.0,"count":1,"Stars":{"All":1,"5s":0,"4s":1,"3s":0,"2s":0,"1s":0},"Region":"海淀区","BusinessName":"嘟嘟小碗菜","Address":"上地十街1号辉煌国际广场2号楼B2楼(西二旗城铁西侧)","tel":"无添加","BusinessType":"北京餐厅","Region2":"海淀区","SubRegion":"上地","SalesType":"快餐/简餐", "comments":{"comments_count":1, "items":["这家小婉菜做的挺正宗的，中午的时候在辉煌国际上班的人都会把店里给挤满要排队，味道地道，价格又很划算，店面不是非常的大。"]}},
{"business_id":5173111,"lat":40.034225,"lng":116.297424,"avg_rating":0.0,"count":1,"Stars":{"All":1,"5s":0,"4s":0,"3s":1,"2s":0,"1s":0},"Region":"海淀区","BusinessName":"添一源串吧","Address":"马连洼北(上地环岛西侧)","tel":"010-57182333","BusinessType":"北京餐厅","Region2":"海淀区","SubRegion":"上地","SalesType":"烧烤", "comments":{"comments_count":4, "items":["说真的，附近的串店他家是很不错的，最起码羊肉是真的，扇贝是新鲜的，吃的时候连着贝壳，价位略有点高，多春鱼很不错，货真价实！"]}},
{"business_id":5195450,"lat":40.052498,"lng":116.29779,"avg_rating":0.0,"count":1,"Stars":{"All":1,"5s":1,"4s":0,"3s":0,"2s":0,"1s":0},"Region":"海淀区","BusinessName":"YY快餐","Address":"东北旺西路8号中关村软件园北门(近东北旺北路)","tel":"010-82772126","BusinessType":"北京餐厅","Region2":"海淀区","SubRegion":"上地","SalesType":"快餐/简餐", "comments":{"comments_count":1, "items":["口味，质量、服务态度非常好，特别是他们家的经典小炒，能让我想起小时候铁锅炒菜的味道，特推荐给各位有机会可以去尝尝"]}},
{"business_id":5157253,"lat":40.050705,"lng":116.27989,"avg_rating":0.0,"count":2,"Stars":{"All":2,"5s":1,"4s":1,"3s":0,"2s":0,"1s":0},"Region":"海淀区","BusinessName":"山西饸饹面","Address":"后厂村路(近中关村软件园)","tel":"010-89820806","BusinessType":"北京餐厅","Region2":"海淀区","SubRegion":"上地","SalesType":"西北菜", "comments":{"comments_count":2, "items":["面有很多种选择，河捞面，刀削面，手擀面。 臊子也有很多种选择，牛肉，羊肉，猪肉。我选的是玉米河捞面，面是不错，羊肉臊子没做好。"]}},
{"business_id":5284549,"lat":40.054295,"lng":116.303276,"avg_rating":0.0,"count":0,"Stars":{"All":0,"5s":0,"4s":0,"3s":0,"2s":0,"1s":0},"Region":"海淀区","BusinessName":"口留香","Address":"上地东路1号盈创动力大厦1楼(近城铁西二旗)","tel":"无添加","BusinessType":"北京餐厅","Region2":"海淀区","SubRegion":"上地","SalesType":"零食","comments":{"comments_count":0, "items":[]}},
{"business_id":5306502,"lat":40.052727,"lng":116.301605,"avg_rating":0.0,"count":1,"Stars":{"All":1,"5s":0,"4s":0,"3s":1,"2s":0,"1s":0},"Region":"海淀区","BusinessName":"百福湘","Address":"上地十街1号院辉煌国际B1楼(地铁)","tel":"15313697181","BusinessType":"北京餐厅","Region2":"海淀区","SubRegion":"上地","SalesType":"快餐/简餐", "comments":{"comments_count":3, "items":["他们家中午快餐很好吃，我们同事还爱吃他们家的饺子和肉饼，就是没有面，关键是我们聚会有包间挺好，晚上炒菜还挺多的，总之在这附近好算不错的饭店吧"]}},
{"business_id":5412363,"lat":40.02785,"lng":116.311905,"avg_rating":0.0,"count":2,"Stars":{"All":2,"5s":0,"4s":0,"3s":2,"2s":0,"1s":0},"Region":"海淀区","BusinessName":"硅谷美食城","Address":"农大南路上地华联附近","tel":"无添加","BusinessType":"北京餐厅","Region2":"海淀区","SubRegion":"上地","SalesType":"快餐/简餐", "comments":{"comments_count":4, "items":["里头有盖饭、木桶饭、麻辣香锅等等，价格还可以接受，但这时候去就是太热了，每次吃饭出来都一身汗。"]}},
{"business_id":5419617,"lat":40.054916,"lng":116.30135,"avg_rating":0.0,"count":2,"Stars":{"All":2,"5s":1,"4s":1,"3s":0,"2s":0,"1s":0},"Region":"海淀区","BusinessName":"河间府驴肉火烧","Address":"上地十街(近西二旗地铁)","tel":"无添加","BusinessType":"北京餐厅","Region2":"海淀区","SubRegion":"上地","SalesType":"快餐/简餐", "comments":{"comments_count":2, "items":["在辉煌国际大厦的地下美食街，驴肉火烧味道不错，有免费的粥和小菜，地方不大，但还算温馨，经常和同事们过来吃，这里还有单点的工作餐。"]}},
{"business_id":5279046,"lat":40.034317,"lng":116.2902,"avg_rating":0.0,"count":1,"Stars":{"All":1,"5s":0,"4s":1,"3s":0,"2s":0,"1s":0},"Region":"海淀区","BusinessName":"蒙古炭烤大营","Address":"马连洼美食一条街","tel":"13911584999","BusinessType":"北京餐厅","Region2":"海淀区","SubRegion":"上地","SalesType":"烧烤", "comments":{"comments_count":2, "items":["真不咋地的一个店，饭点儿去就我们一桌，东西不新鲜，肉串是鸭肉假冒羊肉的，嗨！吃完饭还没有发票，还用评论吗？"]}},
{"business_id":5424167,"lat":40.050457,"lng":116.31731,"avg_rating":0.0,"count":2,"Stars":{"All":2,"5s":1,"4s":1,"3s":0,"2s":0,"1s":0},"Region":"海淀区","BusinessName":"三元食品华冠分公司食堂","Address":"西二旗中路29号三元食品华冠分公司内","tel":"无添加","BusinessType":"北京餐厅","Region2":"海淀区","SubRegion":"上地","SalesType":"快餐/简餐", "comments":{"comments_count":2, "items":["以前的三元食品华冠分公司食堂，现在该处已经被卖了，该食堂做的饭菜那叫一个差劲，大家基本上对这个食堂骂不绝口"]}},
{"business_id":5677286,"lat":40.0389,"lng":116.2916,"avg_rating":0.0,"count":1,"Stars":{"All":1,"5s":0,"4s":0,"3s":1,"2s":0,"1s":0},"Region":"海淀区","BusinessName":"老马拉面","Address":"东北旺中路(近656路公交总站)","tel":"010-62970121","BusinessType":"北京餐厅","Region2":"海淀区","SubRegion":"上地","SalesType":"粉面馆", "comments":{"comments_count":3, "items":["在软件园附近，主要是上班族在这中午吃饭。家常菜、拉面等的味道还行，比食堂的强点。价格也较便宜，环境稍差了点，回民餐厅倒也挺干净。"]}},
{"business_id":5661831,"lat":40.02753,"lng":116.311714,"avg_rating":0.0,"count":1,"Stars":{"All":1,"5s":0,"4s":0,"3s":0,"2s":1,"1s":0},"Region":"海淀区","BusinessName":"静安亭麻辣烫","Address":"农大南路1号院1号楼上地华联商厦B1楼","tel":"无添加","BusinessType":"北京餐厅","Region2":"海淀区","SubRegion":"上地","SalesType":"麻辣烫", "comments":{"comments_count":4, "items":["麻辣烫的种类还可以，最喜欢他家的小料了里面还可以添加花生碎呢可以要求白水煮的就是菜的价格有些贵"]}},
{"business_id":5677259,"lat":40.0389,"lng":116.2916,"avg_rating":0.0,"count":2,"Stars":{"All":2,"5s":0,"4s":1,"3s":0,"2s":0,"1s":1},"Region":"海淀区","BusinessName":"豫大碗","Address":"东北旺中路(近629路总站)","tel":"无添加","BusinessType":"北京餐厅","Region2":"海淀区","SubRegion":"上地","SalesType":"快餐/简餐", "comments":{"comments_count":2, "items":["昨天网上搜到的，感觉还不错，就去了，烩面端上来看着还不错，又点了棒骨，上来一看没肉，只好只吸髓了。开始吃烩面还不错，吃完要喝汤了，才发现有只虫子，好像是只蚂蚁。告诉服务员后，退了15大元。以后不会去了。是永定路的那家。"]}},
{"business_id":5445795,"lat":40.021576,"lng":116.3149,"avg_rating":0.0,"count":0,"Stars":{"All":0,"5s":0,"4s":0,"3s":0,"2s":0,"1s":0},"Region":"海淀区","BusinessName":"天下第一粉","Address":"信息路48号(近北京体育大学)","tel":"无添加","BusinessType":"北京餐厅","Region2":"海淀区","SubRegion":"上地","SalesType":"粉面馆","comments":{"comments_count":0, "items":[]}},
{"business_id":5855836,"lat":40.020706,"lng":116.27681,"avg_rating":0.0,"count":1,"Stars":{"All":1,"5s":0,"4s":0,"3s":1,"2s":0,"1s":0},"Region":"海淀区","BusinessName":"香河肉饼","Address":"天秀路10号(近北京建设大学)","tel":"无添加","BusinessType":"北京餐厅","Region2":"海淀区","SubRegion":"上地","SalesType":"其他小吃", "comments":{"comments_count":1, "items":["旁边是武汉热干面，沙县小吃，哈哈！是我的晚餐食堂了最近！除了肉饼，还有牛肉酥饼，2块5，挺好的！还有就是陕西的面食和各种盖饭！随便吃吃，不是多好的店，就是街边的一般的小店，不用报啥希望吗，呵呵！"]}},
{"business_id":6449332,"lat":40.04358,"lng":116.266266,"avg_rating":0.0,"count":1,"Stars":{"All":1,"5s":0,"4s":1,"3s":0,"2s":0,"1s":0},"Region":"海淀区","BusinessName":"兰州马振宗牛肉拉面","Address":"西北旺路(近西北旺车站)","tel":"无添加","BusinessType":"北京餐厅","Region2":"海淀区","SubRegion":"上地","SalesType":"粉面馆", "comments":{"comments_count":2, "items":["太喜欢这家的拉面了，，味儿那叫一个香~！原来在上地附近上班还好，经常可以去解馋，现在离得远了，偶尔如果去那边办事，去他家吃碗面那是必须的。一大碗面，再来几个烤串，一顿饭下肚，简直别无所求了。强烈推荐毛细，就是最细的一种面，汤汁的味道可以很好的渗进面里，但是必须吃的快一点，因为面条太细，吃的慢就会涨，失去了原来的口感。"]}},
{"business_id":6264124,"lat":40.04721,"lng":116.30415,"avg_rating":0.0,"count":2,"Stars":{"All":2,"5s":0,"4s":0,"3s":2,"2s":0,"1s":0},"Region":"海淀区","BusinessName":"寻客","Address":"上地八街","tel":"无添加","BusinessType":"北京餐厅","Region2":"海淀区","SubRegion":"上地","SalesType":"快餐/简餐", "comments":{"comments_count":3, "items":["位于上地七街，去吃过二次，不过面真是一般，还不便宜，一般都是套餐，就是带一饮料一小菜，我要的是辣白菜，一小点，如果单点主食鸡蛋面都要十二呢。"]}},
{"business_id":7997396,"lat":40.0423,"lng":116.30137,"avg_rating":0.0,"count":1,"Stars":{"All":1,"5s":1,"4s":0,"3s":0,"2s":0,"1s":0},"Region":"海淀区","BusinessName":"春饼王","Address":"东北旺中路东馨园小区东门内(近软件园)","tel":"无添加","BusinessType":"北京餐厅","Region2":"海淀区","SubRegion":"上地","SalesType":"其他小吃", "comments":{"comments_count":5, "items":["春饼做的不错，菜量很多，味道也不错，而且还不贵。就是地方有点偏。建议老板出套餐。也希望老板做大，搬出来做。"]}},
{"business_id":8916903,"lat":40.047527,"lng":116.30805,"avg_rating":0.0,"count":0,"Stars":{"All":0,"5s":0,"4s":0,"3s":0,"2s":0,"1s":0},"Region":"海淀区","BusinessName":"牛大碗拉面","Address":"上地七街","tel":"无添加","BusinessType":"北京餐厅","Region2":"海淀区","SubRegion":"上地","SalesType":"粉面馆","comments":{"comments_count":0, "items":[]}},
{"business_id":9067765,"lat":40.035286,"lng":116.3056,"avg_rating":0.0,"count":1,"Stars":{"All":1,"5s":1,"4s":0,"3s":0,"2s":0,"1s":0},"Region":"海淀区","BusinessName":"一号院烤串","Address":"马连洼北路1号院","tel":"13439000742","BusinessType":"北京餐厅","Region2":"海淀区","SubRegion":"上地","SalesType":"烧烤", "comments":{"comments_count":1, "items":["每次必点 鸡软骨 鸡翅 鱼豆腐 特别好吃老板可以服务态度极好 烤串儿都特别入味儿 这小店开了七八年了"]}},
{"business_id":9269019,"lat":40.030514,"lng":116.31207,"avg_rating":0.0,"count":1,"Stars":{"All":1,"5s":0,"4s":0,"3s":1,"2s":0,"1s":0},"Region":"海淀区","BusinessName":"嘉和一品粥(上地店)","Address":"信息路(近上地华联)","tel":"4001007008","BusinessType":"北京餐厅","Region2":"海淀区","SubRegion":"上地","SalesType":"粥店", "comments":{"comments_count":6, "items":["味道还算，只是不管在哪家店都一样的慢。只是两碗粥，几个凉菜，我就要等将近二十分钟。真的没有宏状元强。太差劲了。"]}},
{"business_id":9735581,"lat":40.0448,"lng":116.30978,"avg_rating":0.0,"count":0,"Stars":{"All":0,"5s":0,"4s":0,"3s":0,"2s":0,"1s":0},"Region":"海淀区","BusinessName":"李记牛肉牛杂面","Address":"上地东路上地六街口(近国试大厦)","tel":"15110196476","BusinessType":"北京餐厅","Region2":"海淀区","SubRegion":"上地","SalesType":"粉面馆","comments":{"comments_count":0, "items":[]}},
{"business_id":10347989,"lat":40.02987,"lng":116.31376,"avg_rating":0.0,"count":1,"Stars":{"All":1,"5s":1,"4s":0,"3s":0,"2s":0,"1s":0},"Region":"海淀区","BusinessName":"冯记驴肉火烧","Address":"上地科贸大厦东里4号楼","tel":"18801405808","BusinessType":"北京餐厅","Region2":"海淀区","SubRegion":"上地","SalesType":"其他小吃", "comments":{"comments_count":1, "items":["对于吃货们来说！必须得去尝尝这美味！现来现做的。。。。。好吃好吃！"]}},
{"business_id":10418956,"lat":40.03416,"lng":116.28848,"avg_rating":0.0,"count":1,"Stars":{"All":1,"5s":0,"4s":0,"3s":1,"2s":0,"1s":0},"Region":"海淀区","BusinessName":"乐海饺子馆","Address":"马连洼(近菊园)","tel":"无添加","BusinessType":"北京餐厅","Region2":"海淀区","SubRegion":"上地","SalesType":"饺子", "comments":{"comments_count":1, "items":["地方一般，实在是因为想吃饺子了正好看到这家就过来吃了也没什么人周围都是烧烤店，她家显得特别冷清饺子包的不错但是当时给上的醋有问题，经过反复沟通才给换了好醋小本生意也应该诚信为本啊希望店主以后能以诚待人，这样生意才能越来越好"]}},
{"business_id":13713437,"lat":40.053024,"lng":116.31271,"avg_rating":0.0,"count":0,"Stars":{"All":0,"5s":0,"4s":0,"3s":0,"2s":0,"1s":0},"Region":"海淀区","BusinessName":"烤肉串","Address":"西二旗大街(近333车站)","tel":"无添加","BusinessType":"北京餐厅","Region2":"海淀区","SubRegion":"上地","SalesType":"烧烤","comments":{"comments_count":0, "items":[]}},
{"business_id":13728182,"lat":40.04101,"lng":116.2615,"avg_rating":0.0,"count":1,"Stars":{"All":1,"5s":0,"4s":1,"3s":0,"2s":0,"1s":0},"Region":"海淀区","BusinessName":"河间正宗郝记驴肉火烧","Address":"马连洼西路(近汽修厂)","tel":"无添加","BusinessType":"北京餐厅","Region2":"海淀区","SubRegion":"上地","SalesType":"其他小吃", "comments":{"comments_count":1, "items":["驴杂汤还不错，驴肉很新鲜，饼很脆。老板很热情。第一次吃驴闷子，还算正宗。"]}},
{"business_id":13767423,"lat":40.023823,"lng":116.29232,"avg_rating":0.0,"count":0,"Stars":{"All":0,"5s":0,"4s":0,"3s":0,"2s":0,"1s":0},"Region":"海淀区","BusinessName":"重庆麻辣烫","Address":"农大南路厢黄旗南侧车站向东15米","tel":"18600615650","BusinessType":"北京餐厅","Region2":"海淀区","SubRegion":"上地","SalesType":"麻辣烫","comments":{"comments_count":0, "items":[]}},
{"business_id":13927176,"lat":40.03497,"lng":116.31052,"avg_rating":0.0,"count":1,"Stars":{"All":1,"5s":1,"4s":0,"3s":0,"2s":0,"1s":0},"Region":"海淀区","BusinessName":"小豆面馆上地店","Address":"信息路(近上地二街)","tel":"010-62984263","BusinessType":"北京餐厅","Region2":"海淀区","SubRegion":"上地","SalesType":"粉面馆", "comments":{"comments_count":1, "items":["新开的店，连锁品质，面饭都很好，卫生干净，吃饭就注重卫生，所以全部好评"]}},
{"business_id":13794085,"lat":40.02392,"lng":116.29845,"avg_rating":0.0,"count":0,"Stars":{"All":0,"5s":0,"4s":0,"3s":0,"2s":0,"1s":0},"Region":"海淀区","BusinessName":"品香源","Address":"上地医院北","tel":"无添加","BusinessType":"北京餐厅","Region2":"海淀区","SubRegion":"上地","SalesType":"熟食","comments":{"comments_count":0, "items":[]}},
{"business_id":14741600,"lat":40.03195,"lng":116.30828,"avg_rating":0.0,"count":0,"Stars":{"All":0,"5s":0,"4s":0,"3s":0,"2s":0,"1s":0},"Region":"海淀区","BusinessName":"宏状元","Address":"上地三街中黎科技园1楼A座(靠近上地环岛)","tel":"010-82790335","BusinessType":"北京餐厅","Region2":"海淀区","SubRegion":"上地","SalesType":"粥店","comments":{"comments_count":0, "items":[]}},
{"business_id":14736198,"lat":40.05315,"lng":116.3013,"avg_rating":0.0,"count":1,"Stars":{"All":1,"5s":0,"4s":0,"3s":1,"2s":0,"1s":0},"Region":"海淀区","BusinessName":"旗鼓村米线","Address":"上地十街1号辉煌国际B1楼(近食分钟)","tel":"无添加","BusinessType":"北京餐厅","Region2":"海淀区","SubRegion":"上地","SalesType":"其他小吃", "comments":{"comments_count":2, "items":["才开张，套餐还不错，摆菜很精致，看着很高端，炸香芋不错，不过上次吃了罐罐米线拉肚子，米线价格偏贵"]}},
{"business_id":14893553,"lat":40.0206,"lng":116.274,"avg_rating":0.0,"count":0,"Stars":{"All":0,"5s":0,"4s":0,"3s":0,"2s":0,"1s":0},"Region":"海淀区","BusinessName":"来伊份(天秀路店)","Address":"天秀路天秀花园安和园22号楼1楼18-13号","tel":"18910965289","BusinessType":"北京餐厅","Region2":"海淀区","SubRegion":"上地","SalesType":"零食","comments":{"comments_count":0, "items":[]}},
{"business_id":14900814,"lat":40.0289,"lng":116.276,"avg_rating":0.0,"count":0,"Stars":{"All":0,"5s":0,"4s":0,"3s":0,"2s":0,"1s":0},"Region":"海淀区","BusinessName":"好口福米线","Address":"圆明园西路18号中发百旺商场5楼","tel":"010-57226197","BusinessType":"北京餐厅","Region2":"海淀区","SubRegion":"上地","SalesType":"快餐/简餐","comments":{"comments_count":0, "items":[]}},
{"business_id":15084677,"lat":40.0387,"lng":116.306,"avg_rating":0.0,"count":0,"Stars":{"All":0,"5s":0,"4s":0,"3s":0,"2s":0,"1s":0},"Region":"海淀区","BusinessName":"丽华快餐(上地店)","Address":"上地西路时代集团","tel":"4008800400","BusinessType":"北京餐厅","Region2":"海淀区","SubRegion":"上地","SalesType":"快餐/简餐","comments":{"comments_count":0, "items":[]}},
{"business_id":2325412,"lat":40.04076,"lng":116.30818,"avg_rating":0.0,"count":1,"Stars":{"All":1,"5s":1,"4s":0,"3s":0,"2s":0,"1s":0},"Region":"海淀区","BusinessName":"北京小吃","Address":"上地五街","tel":"无添加","BusinessType":"北京餐厅","Region2":"海淀区","SubRegion":"上地","SalesType":"粥店", "comments":{"comments_count":3, "items":["印象中只来过一次，听普通的店，没什么特别的，价格还可以，服务也一般。不知道现在还在不在。"]}},
{"business_id":515235,"lat":40.017895,"lng":116.318115,"avg_rating":0.0,"count":1,"Stars":{"All":1,"5s":0,"4s":0,"3s":1,"2s":0,"1s":0},"Region":"海淀区","BusinessName":"兰州老马家拉面","Address":"厢白旗","tel":"010-80623757","BusinessType":"北京餐厅","Region2":"海淀区","SubRegion":"上地","SalesType":"粉面馆", "comments":{"comments_count":7, "items":["地址在圆明园东门下车五环桥下面，这家店开了很久了，吃饭的人很多，特别夏天晚上大排档，是24小时营业，bf说他家牛肉拉面的很正宗，大腕13，小碗12。"]}},
{"business_id":2738002,"lat":40.04181,"lng":116.312515,"avg_rating":0.0,"count":0,"Stars":{"All":0,"5s":0,"4s":0,"3s":0,"2s":0,"1s":0},"Region":"海淀区","BusinessName":"蒸功夫汤包","Address":"上地环岛东","tel":"无添加","BusinessType":"北京餐厅","Region2":"海淀区","SubRegion":"上地","SalesType":"包子", "comments":{"comments_count":2, "items":["这个店紧靠街上,每次早晨在这里买包子吃,包子的味特好,当咬一口,汤汁就会流出来,很香,小店也很卫生,不过早晨买包子的人还是很多的"]}},
{"business_id":2903923,"lat":40.028873,"lng":116.27621,"avg_rating":0.0,"count":0,"Stars":{"All":0,"5s":0,"4s":0,"3s":0,"2s":0,"1s":0},"Region":"海淀区","BusinessName":"羊肉汤","Address":"圆明园西路18号中发百旺商城5楼(近中国农大)","tel":"无添加","BusinessType":"北京餐厅","Region2":"海淀区","SubRegion":"上地","SalesType":"其他小吃", "comments":{"comments_count":2, "items":["口味偏重，北方人吃着合适，推荐羊肚汤，挺好喝的，送饼，一个人20元能吃的饱饱的。喜欢带点膻问得羊肉汤。"]}},
{"business_id":3307864,"lat":40.045414,"lng":116.30498,"avg_rating":0.0,"count":0,"Stars":{"All":0,"5s":0,"4s":0,"3s":0,"2s":0,"1s":0},"Region":"海淀区","BusinessName":"橙子快餐","Address":"上地七街(近软件园)","tel":"010-80929789","BusinessType":"北京餐厅","Region2":"海淀区","SubRegion":"上地","SalesType":"快餐/简餐","comments":{"comments_count":0, "items":[]}},
{"business_id":2914417,"lat":40.035618,"lng":116.31201,"avg_rating":0.0,"count":1,"Stars":{"All":1,"5s":0,"4s":0,"3s":1,"2s":0,"1s":0},"Region":"海淀区","BusinessName":"上地城铁旁煎饼摊","Address":"上地城铁旁","tel":"无添加","BusinessType":"北京餐厅","Region2":"海淀区","SubRegion":"上地","SalesType":"其他小吃", "comments":{"comments_count":3, "items":["今天坐地铁从旁边进过看了一下好像是个卖白吉馍的摊位吧有的叫肉夹馍老板穿了棉猴还有一个用了很久的机器很可口的样子肉夹馍"]}},
{"business_id":3129901,"lat":40.03587,"lng":116.3114,"avg_rating":0.0,"count":0,"Stars":{"All":0,"5s":0,"4s":0,"3s":0,"2s":0,"1s":0},"Region":"海淀区","BusinessName":"地瓜坊(上地城铁店)","Address":"上地城铁公交449车站总站旁","tel":"无添加","BusinessType":"北京餐厅","Region2":"海淀区","SubRegion":"上地","SalesType":"零食", "comments":{"comments_count":4, "items":["因为离地铁近 天天路过 好多人排队买&nbsp;味道很不错 香香的没想到这里的烤地瓜片是那么的好吃，现在我依然能回味到那种味道，人家都说这里蛮干净的，保证你吃的安心呢，买多了还有送，太好了。"]}},
{"business_id":2865754,"lat":40.0585,"lng":116.29063,"avg_rating":0.0,"count":0,"Stars":{"All":0,"5s":0,"4s":0,"3s":0,"2s":0,"1s":0},"Region":"海淀区","BusinessName":"康厨送餐","Address":"唐家岭西路(近中国软件管理学院)","tel":"010-82823688","BusinessType":"北京餐厅","Region2":"海淀区","SubRegion":"上地","SalesType":"快餐/简餐","comments":{"comments_count":0, "items":[]}},
{"business_id":3525871,"lat":40.033768,"lng":116.28617,"avg_rating":0.0,"count":2,"Stars":{"All":2,"5s":0,"4s":2,"3s":0,"2s":0,"1s":0},"Region":"海淀区","BusinessName":"疯狂抄手(马连洼店)","Address":"马连洼北路(近八维计算机学校)","tel":"无添加","BusinessType":"北京餐厅","Region2":"海淀区","SubRegion":"上地","SalesType":"其他小吃", "comments":{"comments_count":4, "items":["大碗的量足九块一大碗，我和老公俩人很努力的才吃完。外加老虎菜，早餐吃的很满足，不过就是离家太远！可惜"]}},
{"business_id":2762758,"lat":40.033913,"lng":116.287704,"avg_rating":0.0,"count":1,"Stars":{"All":1,"5s":0,"4s":0,"3s":1,"2s":0,"1s":0},"Region":"海淀区","BusinessName":"老马家拉面(农大店)","Address":"上地信息路厢白桥下(近农业大学)","tel":"无添加","BusinessType":"北京餐厅","Region2":"海淀区","SubRegion":"上地","SalesType":"粉面馆", "comments":{"comments_count":4, "items":["感觉菜品很一般，豆腐鲫鱼汤还不错，其他的都感觉一般，人不是很多。只去过一次就没有去过了。周围环境不怎么样，靠着大马路，周围的人比较多，不过夏天吃烧烤不错，他们家是清真的。"]}},
{"business_id":3288805,"lat":40.023655,"lng":116.29863,"avg_rating":0.0,"count":1,"Stars":{"All":1,"5s":0,"4s":0,"3s":1,"2s":0,"1s":0},"Region":"海淀区","BusinessName":"兰州老马拉面","Address":"农大南路上地医院附近(树村西路口)","tel":"无添加","BusinessType":"北京餐厅","Region2":"海淀区","SubRegion":"上地","SalesType":"粉面馆", "comments":{"comments_count":4, "items":["还行，但那个炒面片是真难吃其他的到还好，挺实惠的份大....................."]}},
{"business_id":4217689,"lat":40.03507,"lng":116.29804,"avg_rating":0.0,"count":0,"Stars":{"All":0,"5s":0,"4s":0,"3s":0,"2s":0,"1s":0},"Region":"海淀区","BusinessName":"和平医院路边摊","Address":"上地开发区树村后营91号和平医院附近","tel":"无添加","BusinessType":"北京餐厅","Region2":"海淀区","SubRegion":"上地","SalesType":"其他小吃","comments":{"comments_count":0, "items":[]}},
{"business_id":3472264,"lat":40.033276,"lng":116.319115,"avg_rating":0.0,"count":2,"Stars":{"All":2,"5s":0,"4s":0,"3s":2,"2s":0,"1s":0},"Region":"海淀区","BusinessName":"沙县小吃","Address":"上地东二路(近上地城铁)","tel":"无添加","BusinessType":"北京餐厅","Region2":"海淀区","SubRegion":"上地","SalesType":"其他小吃", "comments":{"comments_count":4, "items":["炒河粉还有馄炖不错,每次基本去了都吃这个.内部环境还算可以,随便吃吃没问题."]}},
{"business_id":3474238,"lat":40.035625,"lng":116.31202,"avg_rating":0.0,"count":1,"Stars":{"All":1,"5s":0,"4s":0,"3s":1,"2s":0,"1s":0},"Region":"海淀区","BusinessName":"艾乐福地瓜坊(上地店)","Address":"上地城铁站","tel":"无添加","BusinessType":"北京餐厅","Region2":"海淀区","SubRegion":"上地","SalesType":"零食", "comments":{"comments_count":2, "items":["以前常去买，已经有半年没去买东西了，主要是觉得味道不如以前了。每次主要买的是细长的那种像薯条一样的，很脆很香。分给同事吃，很多人都问哪买的。后来重新装修了，东西也更多了，但是味道觉得不如以前了。以前一下午能吃半袋，现在一个礼拜都吃不完。还买过很多别的都不太记得了，糖炒栗子还不错，就是有点小。"]}},
{"business_id":3432232,"lat":40.04196,"lng":116.29487,"avg_rating":0.0,"count":0,"Stars":{"All":0,"5s":0,"4s":0,"3s":0,"2s":0,"1s":0},"Region":"海淀区","BusinessName":"爱家国际连锁餐厅(上地店)","Address":"东北旺中路上地办公中心对面(近海淀区委党校)","tel":"010-82708001","BusinessType":"北京餐厅","Region2":"海淀区","SubRegion":"上地","SalesType":"快餐/简餐", "comments":{"comments_count":3, "items":["这是一家非常非常好吃的素食店哦。出差来这里，每天都在这里吃饭。非常感谢老板。环境挺好的啊。菜做的也特别好吃，尤其中午的快餐，非常可口。"]}},
{"business_id":4195404,"lat":40.042583,"lng":116.31094,"avg_rating":0.0,"count":0,"Stars":{"All":0,"5s":0,"4s":0,"3s":0,"2s":0,"1s":0},"Region":"海淀区","BusinessName":"五号线快餐","Address":"上地东路","tel":"010-82890292","BusinessType":"北京生活服务","Region2":"海淀区","SubRegion":"上地","SalesType":"更多生活服务","comments":{"comments_count":0, "items":[]}},
{"business_id":4206186,"lat":40.04076,"lng":116.30818,"avg_rating":0.0,"count":0,"Stars":{"All":0,"5s":0,"4s":0,"3s":0,"2s":0,"1s":0},"Region":"海淀区","BusinessName":"申未快餐外卖","Address":"上地五街附近","tel":"010-58475758","BusinessType":"北京餐厅","Region2":"海淀区","SubRegion":"上地","SalesType":"快餐/简餐","comments":{"comments_count":0, "items":[]}},
{"business_id":4127952,"lat":40.042583,"lng":116.31094,"avg_rating":0.0,"count":1,"Stars":{"All":1,"5s":0,"4s":1,"3s":0,"2s":0,"1s":0},"Region":"海淀区","BusinessName":"上海龙元汤包(上地店)","Address":"上地东路(近上地地铁站)","tel":"无添加","BusinessType":"北京餐厅","Region2":"海淀区","SubRegion":"上地","SalesType":"包子", "comments":{"comments_count":1, "items":["类似蒸功夫包子铺那种出售包子的小门脸，说是上海汤包，其实就是普通的包子，走的粗线条，包子在祖国各地都有，也是大众喜闻乐见的一种食物，精致有精致的吃法，更考究一些，大众有大众的吃法，更物美价廉，路过看着蒸汽从屉上冒出，确实很诱人，很暄腾的包子拿在手上，也很温暖，最大的一点好处就是方便，无需等待即刻可取.包子的种类还算多，常见的几种馅都有，猪肉、牛肉、茴香、韭菜、白菜、萝卜等等，基本上价格在1-1.5一个，个头比较适中，馅料还算足食；猪肉大葱的比较喜欢，很香，主要是肥肉稍微多一些，茴香的清香，相对而言除了肉馅的其他菜的都比较干薄毕竟油水比较少；方便快捷，物美价廉，至于味道不能挑剔，本身才1块来钱."]}},
{"business_id":4498116,"lat":40.042583,"lng":116.31094,"avg_rating":0.0,"count":0,"Stars":{"All":0,"5s":0,"4s":0,"3s":0,"2s":0,"1s":0},"Region":"海淀区","BusinessName":"玉林牛腩粉","Address":"上地东路14-25号(联想中国总部旁)","tel":"13521323618","BusinessType":"北京餐厅","Region2":"海淀区","SubRegion":"上地","SalesType":"粉面馆","comments":{"comments_count":0, "items":[]}},
{"business_id":4099827,"lat":40.03003,"lng":116.31325,"avg_rating":0.0,"count":0,"Stars":{"All":0,"5s":0,"4s":0,"3s":0,"2s":0,"1s":0},"Region":"海淀区","BusinessName":"老郭面食","Address":"上地东里菜市场内","tel":"无添加","BusinessType":"北京餐厅","Region2":"海淀区","SubRegion":"上地","SalesType":"粉面馆","comments":{"comments_count":0, "items":[]}},
{"business_id":4118130,"lat":40.036133,"lng":116.30543,"avg_rating":0.0,"count":1,"Stars":{"All":1,"5s":0,"4s":0,"3s":1,"2s":0,"1s":0},"Region":"海淀区","BusinessName":"晨光烧饼(上地店)","Address":"马连洼北路1号院","tel":"无添加","BusinessType":"北京餐厅","Region2":"海淀区","SubRegion":"上地","SalesType":"其他小吃", "comments":{"comments_count":2, "items":["晨光烧饼比一般店卖的要大一些，而且好吃多了，南瓜饼，馅饼，豆沙的，都挺喜欢的，一般都在一元一个，馅饼1.5一个，早餐一个就够了。"]}},
{"business_id":4185432,"lat":40.040962,"lng":116.30616,"avg_rating":0.0,"count":2,"Stars":{"All":2,"5s":0,"4s":0,"3s":2,"2s":0,"1s":0},"Region":"海淀区","BusinessName":"方正大厦餐厅","Address":"上地五街9号方正大厦内","tel":"无添加","BusinessType":"北京餐厅","Region2":"海淀区","SubRegion":"上地","SalesType":"快餐/简餐", "comments":{"comments_count":4, "items":["公司餐厅，又贵又难吃油盐大，来回就是几个菜每天翻来覆去的做每天中午想到要去餐厅吃午饭我就想哭"]}},
{"business_id":4542861,"lat":40.013664,"lng":116.32048,"avg_rating":0.0,"count":1,"Stars":{"All":1,"5s":1,"4s":0,"3s":0,"2s":0,"1s":0},"Region":"海淀区","BusinessName":"开心泡泡麻辣烫","Address":"中关村北大街厢白旗53号(圆明园东门北侧)","tel":"010-51618318","BusinessType":"北京餐厅","Region2":"海淀区","SubRegion":"上地","SalesType":"麻辣烫", "comments":{"comments_count":7, "items":["一开始去开心泡泡麻辣烫是朋友强烈推荐和拖着去的，一开始觉得这家麻辣烫的外观挺一般的，在一个巷子里，虽然招牌挺漂亮、显眼，但没想象中那么完美和精致。刚走进去一个年轻的老板就热情地过来招呼，给人一种有种宾至如归的感觉哈哈（后来经常去才知道老板还是个80后自主创业青年，就冲这种创业精神也得支持支持咱们80后啊）。不过在吃了麻辣烫和烧烤后，我彻底对这家麻辣烫改观了，真的是美味可口，香气扑鼻，让人口水流下三千尺……最最最重要的一点是很便宜！不解释！我和我的朋友们强烈推荐大家去尝一尝！"]}},
{"business_id":4224019,"lat":40.035885,"lng":116.31203,"avg_rating":0.0,"count":0,"Stars":{"All":0,"5s":0,"4s":0,"3s":0,"2s":0,"1s":0},"Region":"海淀区","BusinessName":"N+1营养快餐外卖","Address":"上地软件园北门附近(近百度大厦)","tel":"010-82772556","BusinessType":"北京餐厅","Region2":"海淀区","SubRegion":"上地","SalesType":"快餐/简餐","comments":{"comments_count":0, "items":[]}},
{"business_id":4273853,"lat":40.034496,"lng":116.31175,"avg_rating":0.0,"count":2,"Stars":{"All":2,"5s":0,"4s":1,"3s":1,"2s":0,"1s":0},"Region":"海淀区","BusinessName":"香满屋过桥米线(上地店)","Address":"上地软件园西南角(八维教育西侧)","tel":"010-82782122","BusinessType":"北京餐厅","Region2":"海淀区","SubRegion":"上地","SalesType":"粉面馆", "comments":{"comments_count":19, "items":["以前在软件园上班，每个星期必吃一次，这家的调料很齐全，清汤虽然清淡但是加上那些调料就非常有滋有味了，去年的时候她家开始推出面条了，感觉喜欢吃面条的比米线的多啊，毕竟面条又入味又健康啊，但是中午人超级多，所以如果哪天我们想去吃米线的话都是在11点20左右就开溜了嘿嘿，现在离开了海淀还是很怀念她家的米线啊！"]}},
{"business_id":5149597,"lat":40.037228,"lng":116.30972,"avg_rating":0.0,"count":2,"Stars":{"All":2,"5s":0,"4s":2,"3s":0,"2s":0,"1s":0},"Region":"海淀区","BusinessName":"莱双扬解馋坊(上地店)","Address":"信息路15号(上地环岛西北角)","tel":"15718874181","BusinessType":"北京餐厅","Region2":"海淀区","SubRegion":"上地","SalesType":"熟食", "comments":{"comments_count":4, "items":["见过老板，人很好，灰常的热情~~我觉得和别家的莱双扬一点也不一样，一进去居然还有能坐着吃东东的地方，我特别喜欢他家的布置，买了点鸭脖坐着和老板聊了会，原来所有的家具都是从宜家买的，很有档次~~感觉特别好，我现在已经成为VIP了~~ 刚去他家只有莱双扬，现在还有南国的好多好吃的，好像还有奶茶~大爱啊( ⊙ o ⊙ )啊！"]}},
{"business_id":4498731,"lat":40.037334,"lng":116.307846,"avg_rating":0.0,"count":1,"Stars":{"All":1,"5s":0,"4s":1,"3s":0,"2s":0,"1s":0},"Region":"海淀区","BusinessName":"天天红粉","Address":"上地三街9号嘉华大厦F座底商(上地环岛西侧)","tel":"010-62979899","BusinessType":"北京餐厅","Region2":"海淀区","SubRegion":"上地","SalesType":"粉面馆", "comments":{"comments_count":11, "items":["这家店的粉面是有惊喜的，重点推荐鸡汤米线，酸辣粉，靠门的柜台卖驴火生意很火爆。他们家招牌示意严选原材料，整体感觉做得比较用心。"]}},
{"business_id":4618349,"lat":39.95971,"lng":116.29801,"avg_rating":0.0,"count":2,"Stars":{"All":2,"5s":0,"4s":1,"3s":1,"2s":0,"1s":0},"Region":"海淀区","BusinessName":"久久丫鸭颈王(上地店)","Address":"地铁13号线上地站附近(近麦当劳)","tel":"15311111715","BusinessType":"北京餐厅","Region2":"海淀区","SubRegion":"上地","SalesType":"熟食", "comments":{"comments_count":3, "items":["久久丫应该是连锁鸭脖里面最早的几家了吧 比绝味什么的都要早啊 可是现在怎么东风日下啊 不仅品种上没有创新和改进 连店面和专卖店点都没有绝味多了 而且口味没有其他品种的改进的快 价格倒还挺硬的 不是长久发展之计啊！"]}},
{"business_id":4695435,"lat":40.02753,"lng":116.311714,"avg_rating":0.0,"count":1,"Stars":{"All":1,"5s":0,"4s":0,"3s":1,"2s":0,"1s":0},"Region":"海淀区","BusinessName":"快乐一族(农大店)","Address":"农大南路1号院1号楼上地华联商厦附近","tel":"无添加","BusinessType":"北京餐厅","Region2":"海淀区","SubRegion":"上地","SalesType":"快餐/简餐", "comments":{"comments_count":2, "items":["光听名字很难想象到是餐厅，在这附近算是挺便宜的饭馆啦，来这家餐厅吃饭的顾客多都点盖饭，便宜分量足，味道又好，真正的物美价廉。"]}},
{"business_id":4710083,"lat":40.02307,"lng":116.29258,"avg_rating":0.0,"count":1,"Stars":{"All":1,"5s":1,"4s":0,"3s":0,"2s":0,"1s":0},"Region":"海淀区","BusinessName":"高氏麻辣烫","Address":"农大南路(近正白旗路)","tel":"无添加","BusinessType":"北京餐厅","Region2":"海淀区","SubRegion":"上地","SalesType":"麻辣烫", "comments":{"comments_count":1, "items":["麻醬給力⋯應該是北京人開的店！有小時候喝的瓶可樂！小店挺隨意喜歡這種感覺"]}},
{"business_id":5258069,"lat":40.051987,"lng":116.29917,"avg_rating":0.0,"count":1,"Stars":{"All":1,"5s":0,"4s":0,"3s":0,"2s":0,"1s":1},"Region":"海淀区","BusinessName":"紫景佳","Address":"上地十街辉煌一代(近百度大厦)","tel":"无添加","BusinessType":"北京餐厅","Region2":"海淀区","SubRegion":"上地","SalesType":"快餐/简餐", "comments":{"comments_count":1, "items":["不是一般的失望.我也不想添加商户.但是他们家搜不出来.今天中午去吃饭.说慢.那也OK.再慢能多慢.10分钟.15分钟可以阿.我CAO,你TM做个饭.是再造大米呢吧.等了半小时你来句没做.没关系我们4个人呢.后来又过了一会.上来一份.我心想.我的估计快了.我CAO,快一个小时了.实在等不住了.我去问.阿姨,您真搞笑.回了句:你还有什么没上么?我了个擦.我还特别嘱咐你放点酱油.您来了句这个.耽误人上班时间你懂么?切!〈服务〉总之一个字________烂!"]}},
{"business_id":4742684,"lat":40.05337,"lng":116.30161,"avg_rating":0.0,"count":2,"Stars":{"All":2,"5s":1,"4s":0,"3s":1,"2s":0,"1s":0},"Region":"海淀区","BusinessName":"久久丫鸭颈王(上地店)","Address":"地铁13号线上地站(近麦当劳)","tel":"15010743594","BusinessType":"北京餐厅","Region2":"海淀区","SubRegion":"上地","SalesType":"熟食", "comments":{"comments_count":2, "items":["不够辣 不够辣不够辣不够辣 不够辣不够辣 不够辣 不够辣 不够辣不够辣不够辣 不够辣"]}},
{"business_id":5241210,"lat":40.053104,"lng":116.29866,"avg_rating":0.0,"count":1,"Stars":{"All":1,"5s":0,"4s":0,"3s":1,"2s":0,"1s":0},"Region":"海淀区","BusinessName":"联想北研食堂","Address":"上地西路6号联想北研大厦内","tel":"无添加","BusinessType":"北京餐厅","Region2":"海淀区","SubRegion":"上地","SalesType":"快餐/简餐", "comments":{"comments_count":4, "items":["这个好像不怎么对外开放，首先联想北研的大院不太好进去，门口都有保安， 没有胸卡不怎么好进去，第二，要么有胸卡，要么有餐券，不能用现金吃的，餐券也不知道能不能购买，他们主要服务联想的员工，我就去办事进去过一次，哥们请吃了一次，味道还行，中午人老多，据说联想的人吃是不要钱， 刷的胸卡里面的钱是联想给的餐补。幸福啊，我什么时候能找个有那么多餐补的公司啊"]}},
{"business_id":4657768,"lat":40.03366,"lng":116.28925,"avg_rating":0.0,"count":2,"Stars":{"All":2,"5s":0,"4s":1,"3s":1,"2s":0,"1s":0},"Region":"海淀区","BusinessName":"筋头巴脑老鸭汤","Address":"马连洼路菊园小区对面","tel":"无添加","BusinessType":"北京餐厅","Region2":"海淀区","SubRegion":"上地","SalesType":"粉面馆", "comments":{"comments_count":6, "items":["和女朋友去的，貌似在降价，味道还不错，要的小锅，东西挺多的，价格也合适~停车也算方便，过了晚上6点马路边停也没问题~人不是很多，不到7点到那的一直没坐满。"]}},
{"business_id":5192009,"lat":40.023914,"lng":116.293205,"avg_rating":0.0,"count":1,"Stars":{"All":1,"5s":0,"4s":0,"3s":0,"2s":1,"1s":0},"Region":"海淀区","BusinessName":"沙县小吃","Address":"农大南路(近庆丰包子)","tel":"无添加","BusinessType":"北京餐厅","Region2":"海淀区","SubRegion":"上地","SalesType":"包子", "comments":{"comments_count":1, "items":["进来吃了个馄饨，味道还行，最搞笑的是旁边桌三个人吃饭，老板一家三口算账都算不清，先少收人家6块，追出去要了，又回家算，发现还是少一块，又算，最终发现还是少收钱了，我那个崩溃啊，就30块钱的算数。。。。"]}},
{"business_id":5306496,"lat":40.052727,"lng":116.301605,"avg_rating":0.0,"count":0,"Stars":{"All":0,"5s":0,"4s":0,"3s":0,"2s":0,"1s":0},"Region":"海淀区","BusinessName":"家味快餐","Address":"上地十街1号院辉煌国际B1楼","tel":"无添加","BusinessType":"北京餐厅","Region2":"海淀区","SubRegion":"上地","SalesType":"快餐/简餐","comments":{"comments_count":0, "items":[]}},
{"business_id":4745799,"lat":40.03707,"lng":116.30658,"avg_rating":0.0,"count":1,"Stars":{"All":1,"5s":0,"4s":0,"3s":1,"2s":0,"1s":0},"Region":"海淀区","BusinessName":"上品面","Address":"上地三街9号嘉华大厦E座105号(近醉唐轩)","tel":"无添加","BusinessType":"北京餐厅","Region2":"海淀区","SubRegion":"上地","SalesType":"粉面馆", "comments":{"comments_count":1, "items":["这家也是一般吃午餐，只是来的次数少一些。打菜的人比较小气，有时菜给的不太多，呵呵。凉面还不错，有时晚上会打包一份带回家。"]}},