var dp = [{"business_id":4671805,"lat":29.861372,"lng":121.57556,"avg_rating":4.5,"count":105,"Stars":{"All":105,"5s":24,"4s":55,"3s":20,"2s":4,"1s":2},"Region":"江东区","BusinessName":"涌上外婆桥(百丈东路店)","Address":"百丈东路646号(近甬港饭店)","tel":"0574-87896000","BusinessType":"宁波餐厅","Region2":"江东区","SubRegion":"彩虹广场","SalesType":"农家菜", "comments":{"comments_count":126, "items":]}},
{"business_id":5398973,"lat":29.87488,"lng":121.55281,"avg_rating":4.5,"count":201,"Stars":{"All":201,"5s":60,"4s":89,"3s":42,"2s":7,"1s":3},"Region":"海曙区","BusinessName":"贴阁碧(和义店)","Address":"国医街90号(近万豪酒店)","tel":"0574-87206377","BusinessType":"宁波餐厅","Region2":"海曙区","SubRegion":"天一广场","SalesType":"宁波菜", "comments":{"comments_count":255, "items":]}},
{"business_id":4127737,"lat":29.868042,"lng":121.53898,"avg_rating":4.0,"count":14,"Stars":{"All":14,"5s":7,"4s":7,"3s":0,"2s":0,"1s":0},"Region":"海曙区","BusinessName":"华侨豪生大酒店中餐厅","Address":"柳汀街230号华侨豪生大酒店(近月湖)","tel":"0574-87198851","BusinessType":"宁波餐厅","Region2":"海曙区","SubRegion":"月湖公园","SalesType":"江浙菜", "comments":{"comments_count":15, "items":]}},
{"business_id":5463893,"lat":31.185553,"lng":121.42903,"avg_rating":4.0,"count":176,"Stars":{"All":176,"5s":36,"4s":83,"3s":44,"2s":7,"1s":6},"Region":"徐汇区","BusinessName":"榕港海鲜大酒楼(徐汇店)","Address":"凯旋路2588号(近3号线宜山路站)","tel":"021-64396999","BusinessType":"上海餐厅","Region2":"徐汇区","SubRegion":"万体馆","SalesType":"海鲜", "comments":{"comments_count":260, "items":]}},
{"business_id":3190924,"lat":31.174847,"lng":121.431984,"avg_rating":3.0,"count":216,"Stars":{"All":216,"5s":17,"4s":86,"3s":73,"2s":20,"1s":20},"Region":"徐汇区","BusinessName":"千岛湖平价小海鲜(田林东路店)","Address":"田林东路152号(近漕溪路)","tel":"021-64399097","BusinessType":"上海餐厅","Region2":"徐汇区","SubRegion":"漕河泾/田林","SalesType":"本帮菜", "comments":{"comments_count":268, "items":]}},
{"business_id":14192246,"lat":31.1831,"lng":121.43807,"avg_rating":0.0,"count":1,"Stars":{"All":1,"5s":0,"4s":0,"3s":1,"2s":0,"1s":0},"Region":"徐汇区","BusinessName":"蜀地渔庄","Address":"零陵路880号(近小木桥路)","tel":"无添加","BusinessType":"上海餐厅","Region2":"徐汇区","SubRegion":"万体馆","SalesType":"海鲜", "comments":{"comments_count":1, "items":]}}]